lat,lon,sys_time,gps_time,pitch,roll,yaw,pitch_rate,roll_rate,yaw_rate,airspeed,altitude,ground_speed,heading,path_checksum,roll_rate_setpoint,pitch_rate_setpoint,yaw_rate_setpoint,roll_setpoint,pitch_setpoint,heading_setpoint,altitude_setpoint,throttle_setpoint,internal_battery_voltage,external_battery_voltage,program_state,autonomous_level,startup_errors,am_interchip_errors,pm_interchip_errors,gps_communication_errors,dl_transmission_errors,ul_receive_errors,peripheral_status,uhf_channel_status,ul_rssi,uhf_rssi,uhf_link_quality,waypoint_index,waypoint_count,following_path,roll_rate_kp,roll_rate_kd,roll_rate_ki,pitch_rate_kp,pitch_rate_kd,pitch_rate_ki,yaw_rate_kp,yaw_rate_kd,yaw_rate_ki,roll_angle_kp,roll_angle_kd,roll_angle_ki,pitch_angle_kp,pitch_angle_kd,pitch_angle_ki,heading_kp,heading_ki,altitude_kp,altitude_ki,ground_speed_kp,ground_speed_ki,path_kp,orbit_kp,ch1_in,ch2_in,ch3_in,ch4_in,ch5_in,ch6_in,ch7_in,ch8_in,ch1_out,ch2_out,ch3_out,ch4_out,ch5_out,ch6_out,ch7_out,ch8_out,channels_scaled,dl_rssi
0.0, 0.0, 153, 0.0, 0.0, 0.0, 0.0, 0.0, 0.0, 0.0, 0.0, 0.0, 0.0, 0, , , , , , , , , , , , , , , , , , , , , , , , , , , , , , , , , , , , , , , , , , , , , , , , , , , , , , , , , , , , , , , , , , , , 255
0.0, 0.0, 303, 0.0, 0.0, 0.0, 0.0, 0.0, 0.0, 0.0, 0.0, 0.0, 0.0, 0, , , , , , , , , , , , , , , , , , , , , , , , , , , , , , , , , , , , , , , , , , , , , , , , , , , , , , , , , , , , , , , , , , , , 255
, , , , , , , , , , , , , , 0.0, 0, 0, 0, 0, 0, 0, 0, -1024, 0, 0, 1, 0, 3, 0, 0, 0, 0, 0, 0, 0, 0, 4, 4, 0, 0, 0, , , , , , , , , , , , , , , , , , , , , , , , , , , , , , , , , , , , , , , , , 255
0.0, 0.0, 603, 0.0, 0.0, 0.0, 0.0, 0.0, 0.0, 0.0, 0.0, 0.0, 0.0, 0, , , , , , , , , , , , , , , , , , , , , , , , , , , , , , , , , , , , , , , , , , , , , , , , , , , , , , , , , , , , , , , , , , , , 255
0.0, 0.0, 753, 0.0, 0.0, 0.0, 0.0, 0.0, 0.0, 0.0, 0.8450039029121399, 5.3125, 0.0, 0, , , , , , , , , , , , , , , , , , , , , , , , , , , , , , , , , , , , , , , , , , , , , , , , , , , , , , , , , , , , , , , , , , , , 255
, , , , , , , , , , , , , , , , , , , , , , , , , , , , , , , , , , , , , , , , , , , , , , , , , , , , , , , , , , , , , , , , -10000, -10000, -10000, -10000, -10000, -10000, -10000, -10000, -1024, 0, 0, 0, 0, 0, 0, 0, 1, 255
0.0, 0.0, 1054, 0.0, 0.0, 0.0, 0.0, 0.0, 0.0, 0.0, 1.1266719102859497, 5.3125, 0.0, 0, , , , , , , , , , , , , , , , , , , , , , , , , , , , , , , , , , , , , , , , , , , , , , , , , , , , , , , , , , , , , , , , , , , , 255
0.0, 0.0, 1203, 0.0, 0.0, 0.0, 0.0, 0.0, 0.0, 0.0, 1.1613467931747437, 5.3125, 0.0, 0, , , , , , , , , , , , , , , , , , , , , , , , , , , , , , , , , , , , , , , , , , , , , , , , , , , , , , , , , , , , , , , , , , , , 255
, , , , , , , , , , , , , , 0.0, 0, 0, 0, 0, 0, 0, 0, -1024, 1300, 2390, 1, 0, 3, 0, 0, 1, 0, 0, 0, 255, 0, 0, 0, 76, 0, 0, , , , , , , , , , , , , , , , , , , , , , , , , , , , , , , , , , , , , , , , , 255
48.50988006591797, -71.64605712890625, 497315, 130906.796875, 3.5769898891448975, 2.856168031692505, -35.50374984741211, 0.0371602326631546, -0.5166568160057068, -0.21217627823352814, 0.4878632128238678, -3.0, 0.39444443583488464, 316, , , , , , , , , , , , , , , , , , , , , , , , , , , , , , , , , , , , , , , , , , , , , , , , , , , , , , , , , , , , , , , , , , , , 80
48.50988006591797, -71.64605712890625, 497470, 130907.0, 3.56364107131958, 2.820234537124634, -35.44337463378906, -0.2289026975631714, 0.6507535576820374, -0.039447035640478134, 0.7966773509979248, -3.0, 0.38055557012557983, 318, , , , , , , , , , , , , , , , , , , , , , , , , , , , , , , , , , , , , , , , , , , , , , , , , , , , , , , , , , , , , , , , , , , , 80
, , , , , , , , , , , , , , 7585.7529296875, -50, -32, 0, -7, -3, 0, 0, -1024, 1292, 2390, 3, 1045, 3, 0, 3, 6, 4, 22, 795, 0, 81, 49, 49, 255, 48, 0, , , , , , , , , , , , , , , , , , , , , , , , , , , , , , , , , , , , , , , , , 82
48.50988006591797, -71.64605712890625, 497774, 130907.203125, 3.5707337856292725, 2.6788344383239746, -35.47598648071289, 0.2441173642873764, 0.2922215163707733, -0.010691406205296516, 0.4878632128238678, -3.0, 0.36944445967674255, 322, , , , , , , , , , , , , , , , , , , , , , , , , , , , , , , , , , , , , , , , , , , , , , , , , , , , , , , , , , , , , , , , , , , , 82
48.50988006591797, -71.64605712890625, 497928, 130907.3984375, 3.586052656173706, 2.5832600593566895, -35.44352340698242, -0.03493699058890343, 0.10942898690700531, 0.1253926157951355, 0.3983386754989624, -3.0, 0.36666664481163025, 328, , , , , , , , , , , , , , , , , , , , , , , , , , , , , , , , , , , , , , , , , , , , , , , , , , , , , , , , , , , , , , , , , , , , 82
, , , , , , , , , , , , , , , , , , , , , , , , , , , , , , , , , , , , , , , , , , , , , , , , , , , , , , , , , , , , , , , , -860, -222, 29, -101, -356, -3, -19, -13, -1024, -264, 75, -270, 0, 0, 0, 0, 1, 82
48.50988006591797, -71.64605712890625, 498238, 130907.796875, 3.614034414291382, 2.079284191131592, -35.55281448364258, -0.2164997011423111, -0.180563285946846, 0.3703460097312927, 0.8450039029121399, -4.375, 0.36666664481163025, 334, , , , , , , , , , , , , , , , , , , , , , , , , , , , , , , , , , , , , , , , , , , , , , , , , , , , , , , , , , , , , , , , , , , , 82
48.50988006591797, -71.64605712890625, 498392, 130907.796875, 3.5929760932922363, 2.049433946609497, -35.546043395996094, -0.14280132949352264, 1.312300443649292, 0.4154115319252014, 0.7966773509979248, -4.375, 0.3638889193534851, 340, , , , , , , , , , , , , , , , , , , , , , , , , , , , , , , , , , , , , , , , , , , , , , , , , , , , , , , , , , , , , , , , , , , , 82
, , , , , , , , , , , , , , 7585.7529296875, -46, -32, 0, -7, -3, 0, 0, -1024, 1294, 2390, 3, 1045, 3, 0, 3, 6, 4, 22, 795, 0, 81, 49, 48, 255, 48, 0, , , , , , , , , , , , , , , , , , , , , , , , , , , , , , , , , , , , , , , , , 82
48.50988006591797, -71.64605712890625, 498702, 130908.203125, 3.624438762664795, 1.9340354204177856, -35.57570266723633, -0.032869137823581696, -0.21617750823497772, -0.005604650359600782, 0.2816679775714874, -4.375, 0.3750000298023224, 344, , , , , , , , , , , , , , , , , , , , , , , , , , , , , , , , , , , , , , , , , , , , , , , , , , , , , , , , , , , , , , , , , , , , 82
48.50988006591797, -71.64604187011719, 498851, 130908.3984375, 3.6405892372131348, 1.9214437007904053, -35.565303802490234, -0.2108668088912964, 0.5369471907615662, 0.19563159346580505, 0.2816679775714874, -4.375, 0.3750000298023224, 344, , , , , , , , , , , , , , , , , , , , , , , , , , , , , , , , , , , , , , , , , , , , , , , , , , , , , , , , , , , , , , , , , , , , 82
, , , , , , , , , , , , , , , , , , , , , , , , , , , , , , , , , , , , , , , , , , , , , , , , , , , , , , , , , , , , , , , , -860, -225, 32, -98, -353, -9, -22, -13, -1024, -264, 79, -277, 0, 0, 0, 0, 1, 82
48.50988006591797, -71.64604187011719, 499160, 130908.6015625, 3.6525697708129883, 1.864646077156067, -35.64244842529297, -0.259563684463501, -1.4955791234970093, -0.6691210865974426, 0.2816679775714874, -3.125, 0.3861111104488373, 346, , , , , , , , , , , , , , , , , , , , , , , , , , , , , , , , , , , , , , , , , , , , , , , , , , , , , , , , , , , , , , , , , , , , 80
48.50988006591797, -71.64604187011719, 499315, 130908.796875, 3.677765130996704, 1.730965495109558, -35.8029899597168, -0.2799064517021179, -0.05204393342137337, -0.2967252731323242, 0.4878632128238678, -3.125, 0.3861111104488373, 344, , , , , , , , , , , , , , , , , , , , , , , , , , , , , , , , , , , , , , , , , , , , , , , , , , , , , , , , , , , , , , , , , , , , 80
, , , , , , , , , , , , , , 7585.7529296875, -45, -33, 0, -7, -3, 0, 0, -1024, 1292, 2390, 3, 1045, 3, 0, 3, 6, 4, 22, 795, 0, 81, 49, 49, 255, 48, 0, , , , , , , , , , , , , , , , , , , , , , , , , , , , , , , , , , , , , , , , , 80
48.50988006591797, -71.64604187011719, 499619, 130909.203125, 3.669670820236206, 1.7399123907089233, -35.81897735595703, 0.16886144876480103, -0.600283145904541, -0.18012435734272003, 0.3983386754989624, -3.125, 0.38333335518836975, 344, , , , , , , , , , , , , , , , , , , , , , , , , , , , , , , , , , , , , , , , , , , , , , , , , , , , , , , , , , , , , , , , , , , , 80
48.50988006591797, -71.64604187011719, 499774, 130909.203125, 3.663363218307495, 1.6429649591445923, -35.87409591674805, 0.22355608642101288, 0.39566570520401, 0.09918565303087234, 0.7452234029769897, -3.125, 0.3750000298023224, 345, , , , , , , , , , , , , , , , , , , , , , , , , , , , , , , , , , , , , , , , , , , , , , , , , , , , , , , , , , , , , , , , , , , , 80
, , , , , , , , , , , , , , , , , , , , , , , , , , , , , , , , , , , , , , , , , , , , , , , , , , , , , , , , , , , , , , , , -860, -219, 29, -98, -356, -9, -22, -9, -1024, -261, 78, -279, 0, 0, 0, 0, 1, 80
48.50988006591797, -71.64604187011719, 500083, 130909.6015625, 3.666508436203003, 1.8145185708999634, -35.81963348388672, -0.07319583743810654, -1.6284867525100708, -0.765871524810791, 0.6298287510871887, -3.125, 0.34166666865348816, 346, , , , , , , , , , , , , , , , , , , , , , , , , , , , , , , , , , , , , , , , , , , , , , , , , , , , , , , , , , , , , , , , , , , , 80
48.50988006591797, -71.64604187011719, 500238, 130909.796875, 3.6978890895843506, 1.6196262836456299, -35.99169158935547, -0.014599849469959736, 0.1425449252128601, -0.31307724118232727, 0.890712320804596, -3.125, 0.34166666865348816, 346, , , , , , , , , , , , , , , , , , , , , , , , , , , , , , , , , , , , , , , , , , , , , , , , , , , , , , , , , , , , , , , , , , , , 80
, , , , , , , , , , , , , , 7585.7529296875, -44, -33, 0, -7, -3, 0, 0, -1024, 1292, 2390, 3, 1045, 3, 0, 3, 6, 4, 22, 795, 0, 81, 49, 48, 255, 48, 0, , , , , , , , , , , , , , , , , , , , , , , , , , , , , , , , , , , , , , , , , 80
48.50988006591797, -71.64604187011719, 500542, 130910.0, 3.7173759937286377, 1.7093602418899536, -35.95619201660156, 0.048044830560684204, 0.11506320536136627, -0.1871294528245926, 0.5633359551429749, -3.125, 0.30000001192092896, 349, , , , , , , , , , , , , , , , , , , , , , , , , , , , , , , , , , , , , , , , , , , , , , , , , , , , , , , , , , , , , , , , , , , , 80
48.50988006591797, -71.64604187011719, 500697, 130910.203125, 3.7154805660247803, 1.7214453220367432, -35.92871856689453, -0.05349433794617653, 1.1629393100738525, 0.7137949466705322, 0.9341869354248047, -3.125, 0.2750000059604645, 349, , , , , , , , , , , , , , , , , , , , , , , , , , , , , , , , , , , , , , , , , , , , , , , , , , , , , , , , , , , , , , , , , , , , 81
, , , , , , , , , , , , , , , , , , , , , , , , , , , , , , , , , , , , , , , , , , , , , , , , , , , , , , , , , , , , , , , , -857, -225, 32, -101, -356, -6, -26, -9, -1024, -251, 117, -304, 0, 0, 0, 0, 1, 81
48.50988006591797, -71.64604187011719, 501001, 130910.3984375, 3.7383065223693848, 1.6606684923171997, -35.999732971191406, -0.05656476318836212, -0.5132558941841125, -0.9898792505264282, 1.227762222290039, -3.125, 0.24722222983837128, 345, , , , , , , , , , , , , , , , , , , , , , , , , , , , , , , , , , , , , , , , , , , , , , , , , , , , , , , , , , , , , , , , , , , , 81
48.50988006591797, -71.64604187011719, 501155, 130910.6015625, 3.7442617416381836, 1.645310401916504, -36.00931930541992, -0.11022984981536865, 0.472266286611557, 0.6187514066696167, 0.4878632128238678, -3.1875, 0.16388890147209167, 342, , , , , , , , , , , , , , , , , , , , , , , , , , , , , , , , , , , , , , , , , , , , , , , , , , , , , , , , , , , , , , , , , , , , 81
, , , , , , , , , , , , , , 7585.7529296875, -45, -33, 0, -7, -3, 0, 0, -1024, 1292, 2390, 3, 1045, 3, 0, 3, 6, 4, 22, 795, 0, 81, 49, 48, 255, 48, 0, , , , , , , , , , , , , , , , , , , , , , , , , , , , , , , , , , , , , , , , , 81
48.50988006591797, -71.64604187011719, 501465, 130911.0, 3.7453763484954834, 1.6663979291915894, -36.05540084838867, 0.07010185718536377, -0.36918047070503235, -0.2902103364467621, 0.3983386754989624, -3.1875, 0.125, 342, , , , , , , , , , , , , , , , , , , , , , , , , , , , , , , , , , , , , , , , , , , , , , , , , , , , , , , , , , , , , , , , , , , , 81
48.50988006591797, -71.64604187011719, 501614, 130911.203125, 3.741847276687622, 1.6567481756210327, -36.07243347167969, -0.05948880687355995, -0.10930492728948593, 0.2991108298301697, 0.3983386754989624, -3.1875, 0.125, 342, , , , , , , , , , , , , , , , , , , , , , , , , , , , , , , , , , , , , , , , , , , , , , , , , , , , , , , , , , , , , , , , , , , , 81
, , , , , , , , , , , , , , , , , , , , , , , , , , , , , , , , , , , , , , , , , , , , , , , , , , , , , , , , , , , , , , , , -860, -219, 29, -101, -353, -9, -16, -16, -1024, -248, 87, -270, 0, 0, 0, 0, 1, 81
48.50988006591797, -71.64600372314453, 501918, 130911.3984375, 3.7511003017425537, 1.5292479991912842, -36.16013717651367, 0.04059905558824539, 0.03360394015908241, 0.05857175588607788, 0.7452234029769897, -3.1875, 0.07777778059244156, 342, , , , , , , , , , , , , , , , , , , , , , , , , , , , , , , , , , , , , , , , , , , , , , , , , , , , , , , , , , , , , , , , , , , , 81
48.50988006591797, -71.64600372314453, 502073, 130911.6015625, 3.7479350566864014, 1.561934232711792, -36.13645553588867, -0.009144209325313568, -0.11518878489732742, 0.11422359943389893, 0.5633359551429749, -3.1875, 0.055555559694767, 342, , , , , , , , , , , , , , , , , , , , , , , , , , , , , , , , , , , , , , , , , , , , , , , , , , , , , , , , , , , , , , , , , , , , 80
, , , , , , , , , , , , , , 7585.7529296875, -43, -28, 0, -7, -2, 0, 0, -1024, 1292, 2390, 3, 1045, 3, 0, 3, 6, 4, 22, 795, 0, 81, 49, 48, 255, 48, 0, , , , , , , , , , , , , , , , , , , , , , , , , , , , , , , , , , , , , , , , , 80
48.50988006591797, -71.64600372314453, 502382, 130911.796875, 3.7483043670654297, 1.5555250644683838, -36.14942932128906, -0.1174078956246376, 0.34776657819747925, 0.3906742036342621, 0.8450039029121399, -3.1875, 0.03333333507180214, 342, , , , , , , , , , , , , , , , , , , , , , , , , , , , , , , , , , , , , , , , , , , , , , , , , , , , , , , , , , , , , , , , , , , , 80
48.50988006591797, -71.64600372314453, 502537, 130912.0, 3.750378131866455, 1.5536202192306519, -36.15770721435547, -0.024330593645572662, 0.27094829082489014, -0.4094085097312927, 0.7966773509979248, -3.1875, 0.01944444514811039, 342, , , , , , , , , , , , , , , , , , , , , , , , , , , , , , , , , , , , , , , , , , , , , , , , , , , , , , , , , , , , , , , , , , , , 80
, , , , , , , , , , , , , , , , , , , , , , , , , , , , , , , , , , , , , , , , , , , , , , , , , , , , , , , , , , , , , , , , -830, -219, 58, -75, -353, -9, -19, -16, -1024, -252, 112, -306, 0, 0, 0, 0, 1, 80
48.50988006591797, -71.64600372314453, 502841, 130912.3984375, 3.744464874267578, 1.7140848636627197, -36.104393005371094, 0.03372666984796524, 0.29362305998802185, -0.2590174376964569, 0.890712320804596, -3.1875, 0.011111111380159855, 342, , , , , , , , , , , , , , , , , , , , , , , , , , , , , , , , , , , , , , , , , , , , , , , , , , , , , , , , , , , , , , , , , , , , 80
48.50988006591797, -71.64600372314453, 502995, 130912.3984375, 3.742558717727661, 1.6514760255813599, -36.14238739013672, -0.20395870506763458, -0.3755916655063629, -0.16639350354671478, 0.9341869354248047, -3.1875, 0.01388888992369175, 342, , , , , , , , , , , , , , , , , , , , , , , , , , , , , , , , , , , , , , , , , , , , , , , , , , , , , , , , , , , , , , , , , , , , 80
, , , , , , , , , , , , , , 7585.7529296875, -44, -28, 0, -7, -2, 0, 0, -1024, 1292, 2390, 3, 1045, 3, 0, 3, 6, 4, 22, 795, 0, 81, 49, 48, 255, 48, 0, , , , , , , , , , , , , , , , , , , , , , , , , , , , , , , , , , , , , , , , , 80
48.50988006591797, -71.64600372314453, 503305, 130912.796875, 3.74088191986084, 1.6558455228805542, -36.199920654296875, 0.24770520627498627, 1.0826252698898315, 0.4938221573829651, 0.4878632128238678, -4.375, 0.03611110895872116, 342, , , , , , , , , , , , , , , , , , , , , , , , , , , , , , , , , , , , , , , , , , , , , , , , , , , , , , , , , , , , , , , , , , , , 80
48.50988006591797, -71.64600372314453, 503454, 130913.0, 3.73622989654541, 1.741706132888794, -36.15239715576172, -0.10610915720462799, -0.1990097314119339, -0.014205565676093102, 0.5633359551429749, -4.375, 0.05277777835726738, 342, , , , , , , , , , , , , , , , , , , , , , , , , , , , , , , , , , , , , , , , , , , , , , , , , , , , , , , , , , , , , , , , , , , , 80
, , , , , , , , , , , , , , , , , , , , , , , , , , , , , , , , , , , , , , , , , , , , , , , , , , , , , , , , , , , , , , , , -824, -225, 32, -101, -353, -6, -19, -9, -1024, -246, 119, -302, 0, 0, 0, 0, 1, 79
48.50988006591797, -71.64600372314453, 503758, 130913.203125, 3.735938787460327, 1.6652326583862305, -36.23672103881836, -0.0468229316174984, 0.279538631439209, 0.4530264735221863, 0.3983386754989624, -4.375, 0.08055556565523148, 342, , , , , , , , , , , , , , , , , , , , , , , , , , , , , , , , , , , , , , , , , , , , , , , , , , , , , , , , , , , , , , , , , , , , 79
48.50988006591797, -71.64600372314453, 503913, 130913.3984375, 3.7390241622924805, 1.596723198890686, -36.26742172241211, -0.041678834706544876, -0.17718300223350525, -0.8447030782699585, 0.2816679775714874, -4.375, 0.07777778059244156, 342, , , , , , , , , , , , , , , , , , , , , , , , , , , , , , , , , , , , , , , , , , , , , , , , , , , , , , , , , , , , , , , , , , , , 79
, , , , , , , , , , , , , , 7585.7529296875, -44, -28, 0, -7, -2, 0, 0, -1024, 1293, 2390, 3, 1045, 3, 0, 3, 6, 4, 22, 795, 0, 81, 49, 48, 255, 48, 0, , , , , , , , , , , , , , , , , , , , , , , , , , , , , , , , , , , , , , , , , 79
48.50988006591797, -71.64600372314453, 504217, 130913.796875, 3.7366485595703125, 1.6784565448760986, -36.21943283081055, 0.0529770664870739, -0.4754871726036072, -0.17226774990558624, 0.6899427771568298, -4.375, 0.06666667014360428, 342, , , , , , , , , , , , , , , , , , , , , , , , , , , , , , , , , , , , , , , , , , , , , , , , , , , , , , , , , , , , , , , , , , , , 79
48.50988006591797, -71.64600372314453, 504371, 130913.796875, 3.765065908432007, 1.3209768533706665, -36.41429138183594, 0.8622059226036072, -2.877572774887085, -1.1467230319976807, 0.4878632128238678, -4.375, 0.05000000074505806, 342, , , , , , , , , , , , , , , , , , , , , , , , , , , , , , , , , , , , , , , , , , , , , , , , , , , , , , , , , , , , , , , , , , , , 79
, , , , , , , , , , , , , , , , , , , , , , , , , , , , , , , , , , , , , , , , , , , , , , , , , , , , , , , , , , , , , , , , -386, -225, 29, -101, -353, -6, -22, -13, -1024, -247, 78, -263, 0, 0, 0, 0, 1, 79
48.50988006591797, -71.64600372314453, 504681, 130914.203125, 3.722062349319458, 1.5746839046478271, -36.283267974853516, -3.9034547805786133, -2.2216122150421143, -0.6951943039894104, 0.2816679775714874, -4.375, 0.02500000037252903, 342, , , , , , , , , , , , , , , , , , , , , , , , , , , , , , , , , , , , , , , , , , , , , , , , , , , , , , , , , , , , , , , , , , , , 79
48.50988006591797, -71.64600372314453, 504836, 130914.3984375, 3.6804027557373047, 1.7455840110778809, -36.094085693359375, 4.755646228790283, -3.141467332839966, -0.14807111024856567, 0.2816679775714874, -4.375, 0.008333333767950535, 342, , , , , , , , , , , , , , , , , , , , , , , , , , , , , , , , , , , , , , , , , , , , , , , , , , , , , , , , , , , , , , , , , , , , 79
, , , , , , , , , , , , , , 7585.7529296875, -44, -22, 0, -7, -1, 0, 0, -1024, 1293, 2390, 3, 1045, 3, 0, 3, 6, 4, 22, 795, 0, 81, 49, 49, 255, 48, 1, , , , , , , , , , , , , , , , , , , , , , , , , , , , , , , , , , , , , , , , , 79
48.50988006591797, -71.64600372314453, 505140, 130914.6015625, 3.732253313064575, 1.7041443586349487, -36.07957458496094, 6.472905158996582, -3.204213857650757, 3.9714295864105225, 0.2816679775714874, -3.6875, 0.01944444514811039, 342, , , , , , , , , , , , , , , , , , , , , , , , , , , , , , , , , , , , , , , , , , , , , , , , , , , , , , , , , , , , , , , , , , , , 80
48.50988006591797, -71.64600372314453, 505295, 130914.796875, 3.777379035949707, 1.7713921070098877, -35.81873321533203, -1.9762556552886963, 3.093147039413452, -1.5935347080230713, 0.0, -3.6875, 0.04444444552063942, 342, , , , , , , , , , , , , , , , , , , , , , , , , , , , , , , , , , , , , , , , , , , , , , , , , , , , , , , , , , , , , , , , , , , , 80
, , , , , , , , , , , , , , , , , , , , , , , , , , , , , , , , , , , , , , , , , , , , , , , , , , , , , , , , , , , , , , , , -327, -343, -3, -163, -356, 35, -16, 29, -1024, -362, 57, -336, 0, 0, 0, 0, 1, 80
48.50988006591797, -71.64600372314453, 505604, 130915.203125, 3.6125128269195557, 1.4403632879257202, -35.69544219970703, 4.201657772064209, -3.3023886680603027, 3.426548480987549, 1.0539050102233887, -3.6875, 0.05833333358168602, 342, , , , , , , , , , , , , , , , , , , , , , , , , , , , , , , , , , , , , , , , , , , , , , , , , , , , , , , , , , , , , , , , , , , , 80
48.50988006591797, -71.64600372314453, 505759, 130915.203125, 3.8531930446624756, 1.4453860521316528, -35.32188415527344, 2.027294635772705, -4.094207763671875, 5.195983409881592, 0.0, -3.6875, 0.07777778059244156, 342, , , , , , , , , , , , , , , , , , , , , , , , , , , , , , , , , , , , , , , , , , , , , , , , , , , , , , , , , , , , , , , , , , , , 80
, , , , , , , , , , , , , , 7585.7529296875, -69, -33, 0, -12, -3, 0, 0, -1024, 1289, 2390, 3, 1045, 3, 0, 3, 6, 4, 22, 795, 0, 81, 52, 49, 255, 48, 1, , , , , , , , , , , , , , , , , , , , , , , , , , , , , , , , , , , , , , , , , 80
48.50988006591797, -71.64600372314453, 506068, 130915.6015625, 3.869624614715576, 1.4932341575622559, -34.55326461791992, -1.7484993934631348, 2.499265193939209, -1.151302695274353, 1.0908952951431274, -2.25, 0.10277777910232544, 342, , , , , , , , , , , , , , , , , , , , , , , , , , , , , , , , , , , , , , , , , , , , , , , , , , , , , , , , , , , , , , , , , , , , 80
48.50988006591797, -71.64600372314453, 506223, 130915.796875, 3.762814998626709, 1.4252690076828003, -34.10826110839844, -8.525382041931152, -1.9879734516143799, 5.313432693481445, 1.1950159072875977, -2.25, 0.125, 342, , , , , , , , , , , , , , , , , , , , , , , , , , , , , , , , , , , , , , , , , , , , , , , , , , , , , , , , , , , , , , , , , , , , 80
, , , , , , , , , , , , , , , , , , , , , , , , , , , , , , , , , , , , , , , , , , , , , , , , , , , , , , , , , , , , , , , , -199, -389, 0, -219, -353, 49, -16, 45, -1024, -408, 23, -371, 0, 0, 0, 0, 1, 80
48.50988006591797, -71.64600372314453, 506533, 130916.0, 3.839381456375122, 1.4765828847885132, -32.910404205322266, 15.548711776733398, -3.3774497509002686, 5.087764263153076, 0.5633359551429749, -2.25, 0.14166666567325592, 342, , , , , , , , , , , , , , , , , , , , , , , , , , , , , , , , , , , , , , , , , , , , , , , , , , , , , , , , , , , , , , , , , , , , 80
48.50988006591797, -71.64600372314453, 506687, 130916.203125, 3.5995774269104004, 1.5302834510803223, -32.509559631347656, 7.848381519317627, 1.312239408493042, 0.6980580687522888, 1.2907648086547852, -2.25, 0.16944445669651031, 342, , , , , , , , , , , , , , , , , , , , , , , , , , , , , , , , , , , , , , , , , , , , , , , , , , , , , , , , , , , , , , , , , , , , 81
, , , , , , , , , , , , , , 7585.7529296875, -95, -33, 0, -17, -3, 0, 0, -1024, 1295, 2390, 3, 1045, 3, 0, 3, 6, 4, 22, 795, 0, 81, 61, 48, 255, 48, 1, , , , , , , , , , , , , , , , , , , , , , , , , , , , , , , , , , , , , , , , , 81
48.50988006591797, -71.64600372314453, 506996, 130916.6015625, 3.9287502765655518, 1.2793976068496704, -33.242591857910156, -7.43165922164917, 3.301621437072754, -6.811252593994141, 0.6298287510871887, -3.625, 0.21388888359069824, 342, , , , , , , , , , , , , , , , , , , , , , , , , , , , , , , , , , , , , , , , , , , , , , , , , , , , , , , , , , , , , , , , , , , , 81
48.50988006591797, -71.64600372314453, 507151, 130916.6015625, 3.740940570831299, 1.3123180866241455, -34.47602081298828, 6.958695411682129, -4.671902656555176, -6.915911674499512, 1.0908952951431274, -3.625, 0.2805555462837219, 342, , , , , , , , , , , , , , , , , , , , , , , , , , , , , , , , , , , , , , , , , , , , , , , , , , , , , , , , , , , , , , , , , , , , 81
, , , , , , , , , , , , , , , , , , , , , , , , , , , , , , , , , , , , , , , , , , , , , , , , , , , , , , , , , , , , , , , , -150, -487, -215, -353, -353, 245, -19, 238, -1024, -473, 56, -362, 0, 0, 0, 0, 1, 81
48.50988006591797, -71.64604187011719, 507455, 130917.0, 3.658249616622925, 1.2601895332336426, -37.645381927490234, -16.0854549407959, -0.5705320835113525, -13.542990684509277, 0.890712320804596, -3.625, 0.40833336114883423, 307, , , , , , , , , , , , , , , , , , , , , , , , , , , , , , , , , , , , , , , , , , , , , , , , , , , , , , , , , , , , , , , , , , , , 81
48.50988006591797, -71.64604187011719, 507609, 130917.203125, 3.810929536819458, 1.063868522644043, -39.63078689575195, -1.3383766412734985, 3.6618316173553467, -13.845629692077637, 0.6298287510871887, -3.625, 0.5527777671813965, 304, , , , , , , , , , , , , , , , , , , , , , , , , , , , , , , , , , , , , , , , , , , , , , , , , , , , , , , , , , , , , , , , , , , , 81
, , , , , , , , , , , , , , 7585.7529296875, -57, -28, 0, -10, -2, 0, 0, -1024, 1296, 2390, 3, 1045, 3, 0, 3, 6, 4, 22, 795, 0, 81, 55, 48, 255, 48, 1, , , , , , , , , , , , , , , , , , , , , , , , , , , , , , , , , , , , , , , , , 81
48.50988006591797, -71.64604187011719, 507919, 130917.3984375, 3.8176400661468506, 1.0263333320617676, -41.913597106933594, 8.618467330932617, 1.4085257053375244, -0.09062656760215759, 0.6298287510871887, -3.625, 0.7222222089767456, 302, , , , , , , , , , , , , , , , , , , , , , , , , , , , , , , , , , , , , , , , , , , , , , , , , , , , , , , , , , , , , , , , , , , , 81
48.50988006591797, -71.64605712890625, 508068, 130917.6015625, 3.878355026245117, 0.774853527545929, -41.56415557861328, -2.5873894691467285, 6.814243793487549, 1.0110101699829102, 0.9757264256477356, -3.5625, 1.144444465637207, 294, , , , , , , , , , , , , , , , , , , , , , , , , , , , , , , , , , , , , , , , , , , , , , , , , , , , , , , , , , , , , , , , , , , , 81
, , , , , , , , , , , , , , , , , , , , , , , , , , , , , , , , , , , , , , , , , , , , , , , , , , , , , , , , , , , , , , , , -71, -389, -62, -193, -356, 81, -22, 75, -1024, -400, -31, -297, 0, 0, 0, 0, 1, 81
48.50988006591797, -71.64605712890625, 508377, 130918.0, 3.675755739212036, 1.0625121593475342, -39.261688232421875, -4.968653678894043, -3.320085287094116, 4.462187767028809, 1.4362304210662842, -3.5625, 1.6500000953674316, 295, , , , , , , , , , , , , , , , , , , , , , , , , , , , , , , , , , , , , , , , , , , , , , , , , , , , , , , , , , , , , , , , , , , , 81
48.50988006591797, -71.64605712890625, 508532, 130918.0, 3.7938578128814697, 1.1064709424972534, -39.20424270629883, -3.9140734672546387, 5.96150016784668, -4.5721330642700195, 0.9341869354248047, -3.5625, 1.9944446086883545, 296, , , , , , , , , , , , , , , , , , , , , , , , , , , , , , , , , , , , , , , , , , , , , , , , , , , , , , , , , , , , , , , , , , , , 81
, , , , , , , , , , , , , , 7585.7529296875, -83, -33, 0, -15, -3, 0, 0, -1024, 1299, 2390, 3, 1045, 3, 0, 3, 6, 4, 22, 795, 0, 81, 59, 48, 255, 48, 1, , , , , , , , , , , , , , , , , , , , , , , , , , , , , , , , , , , , , , , , , 81
48.509883880615234, -71.64607238769531, 508841, 130918.3984375, 3.714552164077759, 0.9743831157684326, -41.19532012939453, 8.334650039672852, 2.6514151096343994, -13.199366569519043, 1.227762222290039, -3.5625, 2.872222423553467, 296, , , , , , , , , , , , , , , , , , , , , , , , , , , , , , , , , , , , , , , , , , , , , , , , , , , , , , , , , , , , , , , , , , , , 81
48.509883880615234, -71.64608001708984, 508996, 130918.6015625, 3.6516332626342773, 1.2016615867614746, -43.254859924316406, 9.040534973144531, 6.4310302734375, -11.216958999633789, 1.5168284177780151, -2.3125, 2.872222423553467, 296, , , , , , , , , , , , , , , , , , , , , , , , , , , , , , , , , , , , , , , , , , , , , , , , , , , , , , , , , , , , , , , , , , , , 81
, , , , , , , , , , , , , , , , , , , , , , , , , , , , , , , , , , , , , , , , , , , , , , , , , , , , , , , , , , , , , , , , 19, -222, 16, -114, -353, 6, -16, 3, -1024, -171, 128, -210, 0, 0, 0, 0, 1, 81
48.50990295410156, -71.6460952758789, 509300, 130918.796875, 3.758033037185669, 0.8836379647254944, -44.884735107421875, -7.0097270011901855, -1.2418544292449951, -0.5226356387138367, 1.1950159072875977, -2.3125, 3.605555772781372, 297, , , , , , , , , , , , , , , , , , , , , , , , , , , , , , , , , , , , , , , , , , , , , , , , , , , , , , , , , , , , , , , , , , , , 81
48.509910583496094, -71.64611053466797, 509455, 130919.0, 3.8188512325286865, 0.6701472997665405, -44.40324783325195, -4.022315979003906, 3.1652333736419678, -3.2177703380584717, 1.2596575021743774, -2.3125, 3.866666793823242, 297, , , , , , , , , , , , , , , , , , , , , , , , , , , , , , , , , , , , , , , , , , , , , , , , , , , , , , , , , , , , , , , , , , , , 81
, , , , , , , , , , , , , , 7585.7529296875, -73, -44, 0, -14, -5, 0, 0, -1024, 1298, 2390, 3, 1045, 3, 0, 3, 6, 4, 22, 795, 0, 81, 54, 49, 255, 48, 1, , , , , , , , , , , , , , , , , , , , , , , , , , , , , , , , , , , , , , , , , 81
48.509910583496094, -71.6461181640625, 509759, 130919.3984375, 3.893589735031128, 0.33287179470062256, -45.272090911865234, -9.763009071350098, 2.7939798831939697, -5.4729695320129395, 1.3211398124694824, -2.3125, 4.291666507720947, 296, , , , , , , , , , , , , , , , , , , , , , , , , , , , , , , , , , , , , , , , , , , , , , , , , , , , , , , , , , , , , , , , , , , , 80
48.509910583496094, -71.6461181640625, 509913, 130919.3984375, 3.7048087120056152, 0.761511504650116, -47.01559066772461, 3.937206506729126, 10.17043399810791, -18.707582473754883, 0.7452234029769897, -2.3125, 4.711111545562744, 296, , , , , , , , , , , , , , , , , , , , , , , , , , , , , , , , , , , , , , , , , , , , , , , , , , , , , , , , , , , , , , , , , , , , 80
, , , , , , , , , , , , , , , , , , , , , , , , , , , , , , , , , , , , , , , , , , , , , , , , , , , , , , , , , , , , , , , , 121, -287, -94, -232, -353, 124, -16, 121, -1024, -321, 7, -126, 0, 0, 0, 0, 1, 80
48.509910583496094, -71.64614868164062, 510223, 130919.796875, 3.4964425563812256, 1.360440969467163, -51.888671875, -0.9291449785232544, -5.370121479034424, -17.1318359375, 2.2882814407348633, -2.75, 5.449999809265137, 295, , , , , , , , , , , , , , , , , , , , , , , , , , , , , , , , , , , , , , , , , , , , , , , , , , , , , , , , , , , , , , , , , , , , 80
48.50992965698242, -71.64615631103516, 510372, 130920.0, 3.529171943664551, 0.8241347074508667, -54.2305793762207, -4.85275411605835, 0.4626999497413635, -19.1156063079834, 2.5968503952026367, -2.75, 5.449999809265137, 295, , , , , , , , , , , , , , , , , , , , , , , , , , , , , , , , , , , , , , , , , , , , , , , , , , , , , , , , , , , , , , , , , , , , 80
, , , , , , , , , , , , , , 7585.7529296875, -30, -28, 0, -5, -2, 0, 0, -1024, 1303, 2390, 3, 1045, 3, 0, 3, 6, 4, 22, 876, 0, 81, 52, 48, 255, 48, 1, , , , , , , , , , , , , , , , , , , , , , , , , , , , , , , , , , , , , , , , , 80
48.50993728637695, -71.64618682861328, 510676, 130920.203125, 3.5078375339508057, 1.2261838912963867, -58.408653259277344, -2.2532055377960205, -5.464249610900879, -11.238131523132324, 2.0889055728912354, -2.75, 6.1777777671813965, 293, , , , , , , , , , , , , , , , , , , , , , , , , , , , , , , , , , , , , , , , , , , , , , , , , , , , , , , , , , , , , , , , , , , , 80
48.50994110107422, -71.64619445800781, 510831, 130920.3984375, 3.6222715377807617, 1.5566766262054443, -57.99985885620117, -6.518889427185059, -5.401269912719727, 8.270188331604004, 1.2907648086547852, -2.75, 6.558333873748779, 292, , , , , , , , , , , , , , , , , , , , , , , , , , , , , , , , , , , , , , , , , , , , , , , , , , , , , , , , , , , , , , , , , , , , 80
, , , , , , , , , , , , , , , , , , , , , , , , , , , , , , , , , , , , , , , , , , , , , , , , , , , , , , , , , , , , , , , , 287, -114, 39, 78, -353, -98, -22, -101, -1024, -156, 48, -277, 0, 0, 0, 0, 1, 80
48.50994110107422, -71.64622497558594, 511135, 130920.6015625, 4.227903366088867, 1.9591666460037231, -53.20946502685547, 26.621938705444336, -5.294330596923828, 15.349992752075195, 1.0155682563781738, -1.1875, 7.013889312744141, 291, , , , , , , , , , , , , , , , , , , , , , , , , , , , , , , , , , , , , , , , , , , , , , , , , , , , , , , , , , , , , , , , , , , , 80
48.50994110107422, -71.64623260498047, 511289, 130920.796875, 3.402923345565796, 2.064572811126709, -51.285621643066406, 2.2043709754943848, -19.893451690673828, 0.1146707609295845, 1.5168284177780151, -1.1875, 7.547223091125488, 290, , , , , , , , , , , , , , , , , , , , , , , , , , , , , , , , , , , , , , , , , , , , , , , , , , , , , , , , , , , , , , , , , , , , 80
, , , , , , , , , , , , , , 7585.7529296875, -63, -28, 0, -12, -2, 0, 0, -1024, 1306, 2390, 3, 1045, 3, 0, 3, 6, 4, 22, 795, 0, 81, 49, 48, 255, 48, 1, , , , , , , , , , , , , , , , , , , , , , , , , , , , , , , , , , , , , , , , , 80
48.50996017456055, -71.64628601074219, 511599, 130921.203125, 3.435387372970581, -0.11994028836488724, -51.4964599609375, -9.82768726348877, -13.465019226074219, -7.570101737976074, 2.199897289276123, -1.1875, 8.51111125946045, 288, , , , , , , , , , , , , , , , , , , , , , , , , , , , , , , , , , , , , , , , , , , , , , , , , , , , , , , , , , , , , , , , , , , , 80
48.50996780395508, -71.64630889892578, 511754, 130921.3984375, 3.5475010871887207, -1.9915071725845337, -51.946990966796875, 2.4322314262390137, -3.9917852878570557, -0.021714476868510246, 2.1635327339172363, -1.1875, 8.51111125946045, 288, , , , , , , , , , , , , , , , , , , , , , , , , , , , , , , , , , , , , , , , , , , , , , , , , , , , , , , , , , , , , , , , , , , , 80
, , , , , , , , , , , , , , , , , , , , , , , , , , , , , , , , , , , , , , , , , , , , , , , , , , , , , , , , , , , , , , , , 441, -88, -215, 147, -353, -6, -22, -13, -1024, -6, 15, 26, 0, 0, 0, 0, 1, 80
48.50997543334961, -71.64634704589844, 512064, 130921.6015625, 7.786052227020264, -0.8230016231536865, -53.479007720947266, 11.976716041564941, 7.680141925811768, -8.009035110473633, 2.455524444580078, -1.125, 9.697222709655762, 286, , , , , , , , , , , , , , , , , , , , , , , , , , , , , , , , , , , , , , , , , , , , , , , , , , , , , , , , , , , , , , , , , , , , 80
48.509986877441406, -71.64637756347656, 512213, 130921.796875, 10.310118675231934, 0.9773415327072144, -54.6883659362793, 17.445219039916992, 20.704771041870117, -6.7951836585998535, 2.4716262817382812, -1.125, 10.311112403869629, 286, , , , , , , , , , , , , , , , , , , , , , , , , , , , , , , , , , , , , , , , , , , , , , , , , , , , , , , , , , , , , , , , , , , , 80
, , , , , , , , , , , , , , 7585.7529296875, -69, -82, 0, -11, -4, 0, 0, -1024, 1297, 2390, 3, 1045, 3, 0, 3, 6, 4, 22, 795, 0, 80, 49, 48, 255, 48, 1, , , , , , , , , , , , , , , , , , , , , , , , , , , , , , , , , , , , , , , , , 80
48.509986877441406, -71.64640045166016, 512522, 130922.0, 10.14745807647705, 0.7360920906066895, -56.1814079284668, -17.95379066467285, -3.6090080738067627, 7.979620933532715, 2.487624168395996, -1.125, 10.527778625488281, 286, , , , , , , , , , , , , , , , , , , , , , , , , , , , , , , , , , , , , , , , , , , , , , , , , , , , , , , , , , , , , , , , , , , , 80
48.509986877441406, -71.64643859863281, 512677, 130922.203125, 7.726968765258789, -0.5968438982963562, -54.89487075805664, -7.518662929534912, -24.46463966369629, 10.26438045501709, 2.422999382019043, -1.125, 10.736111640930176, 286, , , , , , , , , , , , , , , , , , , , , , , , , , , , , , , , , , , , , , , , , , , , , , , , , , , , , , , , , , , , , , , , , , , , 80
, , , , , , , , , , , , , , , , , , , , , , , , , , , , , , , , , , , , , , , , , , , , , , , , , , , , , , , , , , , , , , , , 448, -137, -32, -26, -353, -9, -19, -16, -1024, -47, 196, -283, 0, 0, 0, 0, 1, 69
48.5099983215332, -71.64649200439453, 512986, 130922.6015625, 8.224342346191406, -0.9934828877449036, -52.55600357055664, 2.799361228942871, 1.8903250694274902, -0.7182398438453674, 2.2882814407348633, 0.875, 11.455554962158203, 287, , , , , , , , , , , , , , , , , , , , , , , , , , , , , , , , , , , , , , , , , , , , , , , , , , , , , , , , , , , , , , , , , , , , 69
48.510013580322266, -71.64653015136719, 513141, 130922.796875, 9.038812637329102, -1.0031828880310059, -52.53290557861328, 6.202053070068359, -2.408997058868408, -1.2347054481506348, 2.3226935863494873, 0.875, 11.455554962158203, 287, , , , , , , , , , , , , , , , , , , , , , , , , , , , , , , , , , , , , , , , , , , , , , , , , , , , , , , , , , , , , , , , , , , , 69
, , , , , , , , , , , , , , 7585.7529296875, -38, -54, 0, -10, -1, 0, 0, -1024, 1303, 2390, 3, 1045, 3, 0, 3, 6, 4, 22, 795, 0, 80, 50, 48, 255, 48, 1, , , , , , , , , , , , , , , , , , , , , , , , , , , , , , , , , , , , , , , , , 69
48.510013580322266, -71.64656829833984, 513450, 130923.0, 10.006603240966797, -4.0068464279174805, -53.75325012207031, 3.131570816040039, -5.778684616088867, -3.3178489208221436, 2.519315004348755, 0.875, 12.288888931274414, 288, , , , , , , , , , , , , , , , , , , , , , , , , , , , , , , , , , , , , , , , , , , , , , , , , , , , , , , , , , , , , , , , , , , , 69
48.51002502441406, -71.6466064453125, 513605, 130923.203125, 10.324932098388672, -5.984709739685059, -54.472896575927734, 4.520735263824463, -21.10382843017578, -2.5063135623931885, 2.566117286682129, 0.875, 13.200000762939453, 288, , , , , , , , , , , , , , , , , , , , , , , , , , , , , , , , , , , , , , , , , , , , , , , , , , , , , , , , , , , , , , , , , , , , 69
, , , , , , , , , , , , , , , , , , , , , , , , , , , , , , , , , , , , , , , , , , , , , , , , , , , , , , , , , , , , , , , , 484, -134, -117, 49, -356, -3, -22, -9, -1024, 131, 408, -364, 0, 0, 0, 0, 1, 69
48.51004409790039, -71.64664459228516, 513909, 130923.3984375, 14.274984359741211, -5.9392805099487305, -52.811927795410156, 8.955533027648926, 13.970090866088867, 7.555609226226807, 2.612081289291382, 1.5625, 14.083333969116211, 289, , , , , , , , , , , , , , , , , , , , , , , , , , , , , , , , , , , , , , , , , , , , , , , , , , , , , , , , , , , , , , , , , , , , 69
48.51005172729492, -71.64669036865234, 514064, 130923.6015625, 15.41309642791748, -2.687303304672241, -53.72145080566406, 10.153741836547852, 24.0047550201416, -14.590755462646484, 2.5350117683410645, 1.5625, 14.566667556762695, 290, , , , , , , , , , , , , , , , , , , , , , , , , , , , , , , , , , , , , , , , , , , , , , , , , , , , , , , , , , , , , , , , , , , , 69
, , , , , , , , , , , , , , 7585.7529296875, -7, -83, 0, -1, 0, 0, 0, -1024, 1303, 2390, 3, 1045, 3, 0, 3, 6, 4, 22, 902, 0, 80, 48, 48, 255, 48, 1, , , , , , , , , , , , , , , , , , , , , , , , , , , , , , , , , , , , , , , , , 69
48.51007080078125, -71.64674377441406, 514373, 130924.0, 16.81467056274414, 2.9202466011047363, -57.66929244995117, 2.7918968200683594, 12.985966682434082, -3.592634439468384, 2.519315004348755, 1.5625, 14.625000953674316, 290, , , , , , , , , , , , , , , , , , , , , , , , , , , , , , , , , , , , , , , , , , , , , , , , , , , , , , , , , , , , , , , , , , , , 69
48.51008224487305, -71.64678192138672, 514522, 130924.203125, 16.559810638427734, 3.0231382846832275, -57.7959098815918, -5.287947654724121, -5.774641036987305, 3.9836907386779785, 2.2882814407348633, 1.5625, 14.625000953674316, 290, , , , , , , , , , , , , , , , , , , , , , , , , , , , , , , , , , , , , , , , , , , , , , , , , , , , , , , , , , , , , , , , , , , , 69
, , , , , , , , , , , , , , , , , , , , , , , , , , , , , , , , , , , , , , , , , , , , , , , , , , , , , , , , , , , , , , , , 510, -202, 16, -81, -356, -6, -19, -9, -1024, -399, 348, -736, 0, 0, 0, 0, 1, 69
48.51008224487305, -71.64682006835938, 514832, 130924.3984375, 15.19887924194336, 8.903152465820312, -53.05106735229492, -5.422703266143799, 24.5982608795166, 18.713085174560547, 2.6272239685058594, 1.5625, 15.241667747497559, 291, , , , , , , , , , , , , , , , , , , , , , , , , , , , , , , , , , , , , , , , , , , , , , , , , , , , , , , , , , , , , , , , , , , , 69
, , , , , , , , , , , , , , , , , , , , , , , , , , , , , , , , , , , , , , , , , 1.0, 0.0, 0.0, 1.5, 0.0, 0.0, 1.0, 0.0, 0.0, 1.0, 0.0, 0.0, 1.0, 0.0, 0.0, 1.0, 0.0, 1.0, 0.0, 1.0, 0.0, 0.009999999776482582, 1.0, , , , , , , , , , , , , , , , , , 69
48.510108947753906, -71.64689636230469, 515132, 130924.796875, 15.282276153564453, 13.445573806762695, -49.61112594604492, 2.214867353439331, -3.6525285243988037, 2.047790288925171, 2.519315004348755, 7.0, 15.29444408416748, 291, , , , , , , , , , , , , , , , , , , , , , , , , , , , , , , , , , , , , , , , , , , , , , , , , , , , , , , , , , , , , , , , , , , , 69
, , , , , , , , , , , , , , 7585.7529296875, -180, -111, 0, -35, -7, 176, 0, -11264, 1305, 2390, 3, 3055, 3, 0, 3, 6, 4, 22, 795, 0, 80, 53, 48, 255, 48, 1, , , , , , , , , , , , , , , , , , , , , , , , , , , , , , , , , , , , , , , , , 69
48.51011276245117, -71.64695739746094, 515432, 130925.0, 15.531278610229492, 10.6148681640625, -50.280696868896484, 1.3830854892730713, -20.404953002929688, -6.89708948135376, 2.5968503952026367, 7.0, 15.41944408416748, 290, , , , , , , , , , , , , , , , , , , , , , , , , , , , , , , , , , , , , , , , , , , , , , , , , , , , , , , , , , , , , , , , , , , , 69
48.51013946533203, -71.64698791503906, 515582, 130925.203125, 15.011435508728027, 5.435048580169678, -51.11475372314453, -6.002756595611572, -39.48312759399414, -3.6786577701568604, 2.455524444580078, 7.0, 15.286110877990723, 290, , , , , , , , , , , , , , , , , , , , , , , , , , , , , , , , , , , , , , , , , , , , , , , , , , , , , , , , , , , , , , , , , , , , 69
, , , , , , , , , , , , , , , , , , , , , , , , , , , , , , , , , , , , , , , , , , , , , , , , , , , , , , , , , , , , , , , , 539, -428, -101, -225, -356, 124, -22, 121, 1024, -850, 310, -915, 0, 0, 0, 0, 1, 69
48.51014709472656, -71.64702606201172, 515883, 130925.3984375, 13.888376235961914, -3.872002124786377, -51.54069137573242, -5.4149651527404785, -28.556005477905273, -6.450537204742432, 2.305551767349243, 10.625, 15.522221565246582, 290, , , , , , , , , , , , , , , , , , , , , , , , , , , , , , , , , , , , , , , , , , , , , , , , , , , , , , , , , , , , , , , , , , , , 69
48.51015853881836, -71.64704895019531, 516033, 130925.6015625, 14.366582870483398, -7.423513412475586, -51.83962631225586, 4.370110511779785, -29.38492774963379, 1.8473283052444458, 2.339709758758545, 10.625, 15.297222137451172, 291, , , , , , , , , , , , , , , , , , , , , , , , , , , , , , , , , , , , , , , , , , , , , , , , , , , , , , , , , , , , , , , , , , , , 72
, , , , , , , , , , , , , , 7585.7529296875, -126, -127, 0, -35, -10, 179, 0, 13952, 1303, 2390, 3, 3055, 3, 0, 3, 6, 4, 22, 795, 0, 80, 52, 48, 255, 48, 1, , , , , , , , , , , , , , , , , , , , , , , , , , , , , , , , , , , , , , , , , 72
48.51017761230469, -71.64714813232422, 516333, 130926.0, 16.120813369750977, -11.747658729553223, -53.13904571533203, 0.25370848178863525, 18.799802780151367, -2.133582353591919, 2.686941146850586, 10.625, 15.191667556762695, 293, , , , , , , , , , , , , , , , , , , , , , , , , , , , , , , , , , , , , , , , , , , , , , , , , , , , , , , , , , , , , , , , , , , , 72
48.51017761230469, -71.64714813232422, 516484, 130926.0, 15.99637222290039, -7.683940410614014, -53.6939582824707, -0.2124921679496765, 34.57086181640625, -5.327301502227783, 2.519315004348755, 10.625, 15.594446182250977, 294, , , , , , , , , , , , , , , , , , , , , , , , , , , , , , , , , , , , , , , , , , , , , , , , , , , , , , , , , , , , , , , , , , , , 72
, , , , , , , , , , , , , , , , , , , , , , , , , , , , , , , , , , , , , , , , , , , , , , , , , , , , , , , , , , , , , , , , 536, 160, 75, -75, -353, -39, -22, -45, 1024, -850, 364, -915, 0, 0, 0, 0, 1, 72
48.51020431518555, -71.64722442626953, 516784, 130926.3984375, 14.66710090637207, 3.6327409744262695, -55.259552001953125, -2.256215810775757, 28.40036964416504, -0.8841924071311951, 2.7741076946258545, 10.625, 15.963890075683594, 294, , , , , , , , , , , , , , , , , , , , , , , , , , , , , , , , , , , , , , , , , , , , , , , , , , , , , , , , , , , , , , , , , , , , 72
48.510223388671875, -71.64726257324219, 516934, 130926.6015625, 13.687091827392578, 6.053152084350586, -54.882938385009766, -8.405401229858398, -1.0127850770950317, 6.995126724243164, 2.612081289291382, 14.5625, 15.963890075683594, 294, , , , , , , , , , , , , , , , , , , , , , , , , , , , , , , , , , , , , , , , , , , , , , , , , , , , , , , , , , , , , , , , , , , , 72
, , , , , , , , , , , , , , 7585.7529296875, -180, -137, 0, -35, -14, 181, 0, 22976, 1303, 2390, 3, 3055, 3, 0, 3, 6, 4, 22, 795, 0, 74, 49, 48, 255, 48, 1, , , , , , , , , , , , , , , , , , , , , , , , , , , , , , , , , , , , , , , , , 72
48.51023483276367, -71.6473159790039, 517235, 130926.796875, 13.177081108093262, 5.523293972015381, -51.08283996582031, 2.964421033859253, -0.022613901644945145, 12.427431106567383, 2.5968503952026367, 14.5625, 15.791666984558105, 294, , , , , , , , , , , , , , , , , , , , , , , , , , , , , , , , , , , , , , , , , , , , , , , , , , , , , , , , , , , , , , , , , , , , 72
48.51024627685547, -71.64735412597656, 517385, 130927.0, 13.882306098937988, 5.519247531890869, -49.69416427612305, 12.590300559997559, 3.8034462928771973, 7.899702072143555, 2.6272239685058594, 14.5625, 15.697221755981445, 294, , , , , , , , , , , , , , , , , , , , , , , , , , , , , , , , , , , , , , , , , , , , , , , , , , , , , , , , , , , , , , , , , , , , 77
, , , , , , , , , , , , , , , , , , , , , , , , , , , , , , , , , , , , , , , , , , , , , , , , , , , , , , , , , , , , , , , , 549, -219, -104, -65, -356, 42, -22, 35, 1024, -850, 648, -915, 0, 0, 0, 0, 1, 77
48.51024627685547, -71.64736938476562, 517685, 130927.203125, 17.091413497924805, 6.396891117095947, -50.76694107055664, 2.8234429359436035, 1.2941101789474487, -10.210404396057129, 2.7016642093658447, 14.5625, 15.494444847106934, 294, , , , , , , , , , , , , , , , , , , , , , , , , , , , , , , , , , , , , , , , , , , , , , , , , , , , , , , , , , , , , , , , , , , , 77
48.51027297973633, -71.64741516113281, 517836, 130927.3984375, 17.50281524658203, 5.3228759765625, -52.20163345336914, 1.6176862716674805, -5.776711463928223, -5.907431602478027, 2.199897289276123, 19.0625, 15.336111068725586, 294, , , , , , , , , , , , , , , , , , , , , , , , , , , , , , , , , , , , , , , , , , , , , , , , , , , , , , , , , , , , , , , , , , , , 77
, , , , , , , , , , , , , , 7585.7529296875, -180, -179, 0, -35, -19, 184, 0, -8832, 1303, 2390, 3, 3055, 3, 0, 3, 6, 4, 22, 795, 0, 74, 51, 48, 255, 48, 1, , , , , , , , , , , , , , , , , , , , , , , , , , , , , , , , , , , , , , , , , 77
48.510292053222656, -71.6474838256836, 518136, 130927.796875, 16.903194427490234, 3.3462538719177246, -50.79693603515625, -6.379528045654297, -6.665563106536865, 14.091530799865723, 2.642279624938965, 19.0625, 15.050000190734863, 294, , , , , , , , , , , , , , , , , , , , , , , , , , , , , , , , , , , , , , , , , , , , , , , , , , , , , , , , , , , , , , , , , , , , 77
48.510292053222656, -71.6474838256836, 518286, 130927.796875, 16.016374588012695, 3.5959489345550537, -48.4249267578125, -7.316190242767334, 8.958948135375977, 14.35275650024414, 2.455524444580078, 19.0625, 15.03888988494873, 295, , , , , , , , , , , , , , , , , , , , , , , , , , , , , , , , , , , , , , , , , , , , , , , , , , , , , , , , , , , , , , , , , , , , 77
, , , , , , , , , , , , , , , , , , , , , , , , , , , , , , , , , , , , , , , , , , , , , , , , , , , , , , , , , , , , , , , , 543, 55, 173, -209, -353, -13, -19, -16, -1024, -850, 565, -915, 0, 0, 0, 0, 1, 77
48.510318756103516, -71.64756774902344, 518587, 130928.203125, 12.195072174072266, 9.558817863464355, -47.81221008300781, -12.805825233459473, 24.939014434814453, -11.8886137008667, 2.305551767349243, 19.0625, 15.191667556762695, 296, , , , , , , , , , , , , , , , , , , , , , , , , , , , , , , , , , , , , , , , , , , , , , , , , , , , , , , , , , , , , , , , , , , , 77
48.510337829589844, -71.6476058959961, 518737, 130928.3984375, 11.03264045715332, 13.529132843017578, -50.07082748413086, -12.053790092468262, 34.90323257446289, -13.130085945129395, 2.487624168395996, 19.0625, 15.191667556762695, 296, , , , , , , , , , , , , , , , , , , , , , , , , , , , , , , , , , , , , , , , , , , , , , , , , , , , , , , , , , , , , , , , , , , , 77
, , , , , , , , , , , , , , 7585.7529296875, -180, -175, 0, -35, -25, 185, 0, -3776, 1305, 2390, 3, 3055, 3, 0, 3, 6, 4, 22, 795, 0, 74, 47, 48, 255, 48, 1, , , , , , , , , , , , , , , , , , , , , , , , , , , , , , , , , , , , , , , , , 77
48.51034927368164, -71.64763641357422, 519037, 130928.6015625, 9.95050048828125, 18.937097549438477, -51.076454162597656, 1.4377331733703613, 0.4166334867477417, 14.01345157623291, 2.6721370220184326, 25.0625, 15.113332748413086, 296, , , , , , , , , , , , , , , , , , , , , , , , , , , , , , , , , , , , , , , , , , , , , , , , , , , , , , , , , , , , , , , , , , , , 77
48.51036071777344, -71.64767456054688, 519187, 130928.796875, 9.064785957336426, 17.997068405151367, -48.42752456665039, 5.231545925140381, -16.744647979736328, 25.658845901489258, 2.566117286682129, 25.0625, 15.002778053283691, 296, , , , , , , , , , , , , , , , , , , , , , , , , , , , , , , , , , , , , , , , , , , , , , , , , , , , , , , , , , , , , , , , , , , , 77
, , , , , , , , , , , , , , , , , , , , , , , , , , , , , , , , , , , , , , , , , , , , , , , , , , , , , , , , , , , , , , , , 543, -229, -62, 45, -356, -32, -19, -39, 1024, -850, 729, -915, 0, 0, 0, 0, 1, 77
48.510379791259766, -71.64775085449219, 519488, 130929.203125, 9.820664405822754, 15.349142074584961, -40.53583908081055, 8.562524795532227, -15.296394348144531, 19.148317337036133, 2.6272239685058594, 25.0625, 14.969446182250977, 296, , , , , , , , , , , , , , , , , , , , , , , , , , , , , , , , , , , , , , , , , , , , , , , , , , , , , , , , , , , , , , , , , , , , 77
48.510379791259766, -71.64775085449219, 519638, 130929.203125, 11.438065528869629, 11.63858699798584, -38.13469314575195, 21.474300384521484, -31.797243118286133, 8.60111141204834, 2.566117286682129, 25.0625, 14.86388874053955, 297, , , , , , , , , , , , , , , , , , , , , , , , , , , , , , , , , , , , , , , , , , , , , , , , , , , , , , , , , , , , , , , , , , , , 77
, , , , , , , , , , , , , , 7585.7529296875, -180, -177, 0, -35, -25, 187, 0, 14592, 1302, 2390, 3, 3055, 3, 0, 3, 6, 4, 22, 795, 0, 74, 48, 48, 255, 48, 1, , , , , , , , , , , , , , , , , , , , , , , , , , , , , , , , , , , , , , , , , 77
48.51041793823242, -71.64781188964844, 519938, 130929.6015625, 13.972572326660156, 10.473078727722168, -36.788238525390625, 1.9281299114227295, -5.023662090301514, -4.075690746307373, 2.4716262817382812, 26.625, 14.816668510437012, 300, , , , , , , , , , , , , , , , , , , , , , , , , , , , , , , , , , , , , , , , , , , , , , , , , , , , , , , , , , , , , , , , , , , , 77
48.510433197021484, -71.6478500366211, 520088, 130929.796875, 14.205223083496094, 9.598217964172363, -36.77289581298828, 0.1689356118440628, -4.744043350219727, 2.439466714859009, 2.9541585445404053, 26.625, 14.816668510437012, 300, , , , , , , , , , , , , , , , , , , , , , , , , , , , , , , , , , , , , , , , , , , , , , , , , , , , , , , , , , , , , , , , , , , , 77
, , , , , , , , , , , , , , , , , , , , , , , , , , , , , , , , , , , , , , , , , , , , , , , , , , , , , , , , , , , , , , , , 526, 0, 124, -101, -353, -49, -22, -52, 1024, -850, 756, -915, 0, 0, 0, 0, 1, 77
48.51045227050781, -71.64788818359375, 520389, 130930.0, 12.724756240844727, 7.9474778175354, -35.02000427246094, -1.1094260215759277, 23.90018081665039, 11.221416473388672, 2.3900318145751953, 26.625, 14.947221755981445, 304, , , , , , , , , , , , , , , , , , , , , , , , , , , , , , , , , , , , , , , , , , , , , , , , , , , , , , , , , , , , , , , , , , , , 77
48.51046371459961, -71.64790344238281, 520539, 130930.203125, 12.11652946472168, 9.973310470581055, -34.0466194152832, -2.099224328994751, -3.6988930702209473, 6.511613845825195, 2.686941146850586, 26.625, 14.66388988494873, 308, , , , , , , , , , , , , , , , , , , , , , , , , , , , , , , , , , , , , , , , , , , , , , , , , , , , , , , , , , , , , , , , , , , , 77
, , , , , , , , , , , , , , 7585.7529296875, -180, -177, 0, -35, -26, 189, 0, -31104, 1303, 2390, 3, 3055, 3, 0, 3, 6, 4, 22, 795, 0, 74, 46, 48, 255, 48, 1, , , , , , , , , , , , , , , , , , , , , , , , , , , , , , , , , , , , , , , , , 77
48.51048278808594, -71.64794158935547, 520839, 130930.3984375, 10.64795970916748, 16.231916427612305, -32.03453063964844, -5.534451961517334, 37.3418083190918, 10.093114852905273, 2.6721370220184326, 31.4375, 14.655555725097656, 311, , , , , , , , , , , , , , , , , , , , , , , , , , , , , , , , , , , , , , , , , , , , , , , , , , , , , , , , , , , , , , , , , , , , 77
48.5105094909668, -71.64797973632812, 520989, 130930.6015625, 9.932027816772461, 20.55406951904297, -30.36226463317871, 2.9047751426696777, 26.27437400817871, 15.895536422729492, 3.149143695831299, 31.4375, 14.71944522857666, 313, , , , , , , , , , , , , , , , , , , , , , , , , , , , , , , , , , , , , , , , , , , , , , , , , , , , , , , , , , , , , , , , , , , , 77
, , , , , , , , , , , , , , , , , , , , , , , , , , , , , , , , , , , , , , , , , , , , , , , , , , , , , , , , , , , , , , , , 549, 19, 55, 32, -353, -88, -22, -94, 1024, -850, 615, -915, 0, 0, 0, 0, 1, 77
48.51055145263672, -71.64802551269531, 521290, 130931.0, 8.862519264221191, 30.119739532470703, -24.77426528930664, 5.618838787078857, 9.62623119354248, 17.00192642211914, 2.642279624938965, 31.4375, 14.716667175292969, 315, , , , , , , , , , , , , , , , , , , , , , , , , , , , , , , , , , , , , , , , , , , , , , , , , , , , , , , , , , , , , , , , , , , , 77
48.51055145263672, -71.64802551269531, 521440, 130931.0, 8.549752235412598, 32.19276809692383, -22.553794860839844, 6.640023708343506, 0.37789079546928406, 13.93737506866455, 2.519315004348755, 31.4375, 15.283333778381348, 316, , , , , , , , , , , , , , , , , , , , , , , , , , , , , , , , , , , , , , , , , , , , , , , , , , , , , , , , , , , , , , , , , , , , 77
, , , , , , , , , , , , , , 7585.7529296875, -180, -171, 0, -35, -31, 190, 0, 17280, 1301, 2390, 3, 3055, 3, 0, 3, 6, 4, 22, 795, 0, 81, 48, 48, 255, 48, 1, , , , , , , , , , , , , , , , , , , , , , , , , , , , , , , , , , , , , , , , , 77
48.51058578491211, -71.6480941772461, 521741, 130931.3984375, 9.486113548278809, 34.140193939208984, -14.821707725524902, 15.309040069580078, 1.754123568534851, 19.646846771240234, 2.6272239685058594, 31.4375, 15.325000762939453, 319, , , , , , , , , , , , , , , , , , , , , , , , , , , , , , , , , , , , , , , , , , , , , , , , , , , , , , , , , , , , , , , , , , , , 77
48.5106086730957, -71.6480941772461, 521891, 130931.6015625, 9.600295066833496, 34.98657989501953, -11.118223190307617, 14.5170316696167, 1.8828047513961792, 16.97794532775879, 2.566117286682129, 35.5625, 15.325000762939453, 319, , , , , , , , , , , , , , , , , , , , , , , , , , , , , , , , , , , , , , , , , , , , , , , , , , , , , , , , , , , , , , , , , , , , 77
, , , , , , , , , , , , , , , , , , , , , , , , , , , , , , , , , , , , , , , , , , , , , , , , , , , , , , , , , , , , , , , , 523, -258, -91, 55, -356, -22, -19, -26, -1024, -850, 758, -915, 0, 0, 0, 0, 1, 79
48.51063537597656, -71.64813995361328, 522191, 130931.796875, 11.646371841430664, 34.808956146240234, -5.218444347381592, 16.70672035217285, -18.61200523376465, 8.874014854431152, 2.7453596591949463, 35.5625, 15.452777862548828, 321, , , , , , , , , , , , , , , , , , , , , , , , , , , , , , , , , , , , , , , , , , , , , , , , , , , , , , , , , , , , , , , , , , , , 79
48.51065444946289, -71.64815521240234, 522341, 130932.0, 12.400264739990234, 31.979351043701172, -2.3620669841766357, 16.68848991394043, -31.625934600830078, 16.17644691467285, 2.5968503952026367, 35.5625, 15.46944522857666, 322, , , , , , , , , , , , , , , , , , , , , , , , , , , , , , , , , , , , , , , , , , , , , , , , , , , , , , , , , , , , , , , , , , , , 79
, , , , , , , , , , , , , , 7585.7529296875, -180, -172, 0, -35, -35, 191, 0, 12416, 1313, 2390, 3, 3055, 3, 0, 3, 6, 4, 22, 795, 0, 81, 49, 48, 255, 48, 1, , , , , , , , , , , , , , , , , , , , , , , , , , , , , , , , , , , , , , , , , 79
48.510684967041016, -71.648193359375, 522642, 130932.203125, 14.764985084533691, 24.351516723632812, 2.2270307540893555, 9.889115333557129, -17.366310119628906, 2.2299227714538574, 2.980893611907959, 35.5625, 15.486111640930176, 323, , , , , , , , , , , , , , , , , , , , , , , , , , , , , , , , , , , , , , , , , , , , , , , , , , , , , , , , , , , , , , , , , , , , 79
48.510711669921875, -71.6482162475586, 522792, 130932.3984375, 15.234302520751953, 22.122196197509766, 3.0089125633239746, -2.618422508239746, -12.157464027404785, 1.7336466312408447, 2.455524444580078, 39.625, 15.502777099609375, 324, , , , , , , , , , , , , , , , , , , , , , , , , , , , , , , , , , , , , , , , , , , , , , , , , , , , , , , , , , , , , , , , , , , , 79
, , , , , , , , , , , , , , , , , , , , , , , , , , , , , , , , , , , , , , , , , 1.0, 0.0, 0.0, 1.5, 0.0, 0.0, 1.0, 0.0, 0.0, 1.0, 0.0, 0.0, 1.0, 0.0, 0.0, 1.0, 0.0, 1.0, 0.0, 1.0, 0.0, 0.009999999776482582, 1.0, , , , , , , , , , , , , , , , , , 79
, , , , , , , , , , , , , , , , , , , , , , , , , , , , , , , , , , , , , , , , , , , , , , , , , , , , , , , , , , , , , , , , 494, -42, 49, -65, -353, -32, -22, -39, 1024, -850, 663, -915, 0, 0, 0, 0, 1, 79
48.51075744628906, -71.64825439453125, 523243, 130932.796875, 14.24378490447998, 22.939441680908203, 5.052661418914795, 7.1052117347717285, 9.905572891235352, 4.717462539672852, 2.455524444580078, 39.625, 15.333333969116211, 334, , , , , , , , , , , , , , , , , , , , , , , , , , , , , , , , , , , , , , , , , , , , , , , , , , , , , , , , , , , , , , , , , , , , 79
48.510780334472656, -71.64826965332031, 523393, 130933.0, 14.101710319519043, 25.93478775024414, 6.108193397521973, -0.5155678391456604, 24.587770462036133, 9.755227088928223, 2.4716262817382812, 39.625, 15.34444522857666, 335, , , , , , , , , , , , , , , , , , , , , , , , , , , , , , , , , , , , , , , , , , , , , , , , , , , , , , , , , , , , , , , , , , , , 79
, , , , , , , , , , , , , , 7585.7529296875, -180, -172, 0, -35, -35, 193, 0, 7136, 1302, 2390, 3, 3039, 3, 0, 3, 6, 4, 22, 795, 0, 81, 47, 48, 255, 48, 1, , , , , , , , , , , , , , , , , , , , , , , , , , , , , , , , , , , , , , , , , 84
48.51084518432617, -71.64828491210938, 523693, 130933.3984375, 12.048663139343262, 35.31803894042969, 11.00842571258545, 9.373059272766113, 30.90065574645996, 23.6133975982666, 2.5035195350646973, 39.625, 15.047223091125488, 337, , , , , , , , , , , , , , , , , , , , , , , , , , , , , , , , , , , , , , , , , , , , , , , , , , , , , , , , , , , , , , , , , , , , 84
48.51084518432617, -71.64828491210938, 523843, 130933.3984375, 11.364782333374023, 39.84148025512695, 14.624181747436523, 7.026496887207031, 15.080621719360352, 18.744606018066406, 2.6272239685058594, 44.1875, 14.647222518920898, 342, , , , , , , , , , , , , , , , , , , , , , , , , , , , , , , , , , , , , , , , , , , , , , , , , , , , , , , , , , , , , , , , , , , , 84
, , , , , , , , , , , , , , , , , , , , , , , , , , , , , , , , , , , , , , , , , , , , , , , , , , , , , , , , , , , , , , , , 490, -268, -75, 62, -356, -42, -19, -45, 1024, -850, 732, -915, 0, 0, 0, 0, 1, 84
48.510894775390625, -71.64828491210938, 524144, 130933.796875, 11.20224380493164, 43.26713562011719, 21.562156677246094, 24.901222229003906, -3.719578742980957, 10.483475685119629, 2.642279624938965, 44.1875, 14.66388988494873, 353, , , , , , , , , , , , , , , , , , , , , , , , , , , , , , , , , , , , , , , , , , , , , , , , , , , , , , , , , , , , , , , , , , , , 84
