lat,lon,time,pitch,roll,yaw,pitch_rate,roll_rate,yaw_rate,kd_gain,kp_gain,ki_gain,ground_speed,altitude,heading,pitch_setpoint,roll_setpoint,heading_setpoint,throttle_setpoint,altitude_setpoint,int_pitch_setpoint,int_roll_setpoint,int_yaw_setpoint,lastCommandSent,errorCodes,cameraStatus,waypointIndex,editing_gain,gpsStatus
49.911844999797175, -98.2686700000173, 215410.5, -6.886077880859375, -10.49039077758789, -62.28376770019531, -0.05588750168681145, 0.0036246776580810547, 0.021407054737210274, 0.0, 1.0, 0.0, 0.0, -1.375, 175, 1, -30, 193, -104, 0, -45, -7, -5, 4300, 4, 1, 0, 0, 27)
49.911844999797175, -98.2686700000173, 215410.703125, -7.248894691467285, -10.969817161560059, -61.86073303222656, -0.03157282620668411, 0.008241081610321999, 0.015594836324453354, 0.0, 1.0, 0.0, 0.0, -1.375, 175, 1, -30, 193, -104, 0, -45, -7, -5, 4300, 4, 1, 0, 0, 27)
49.911844999797175, -98.2686700000173, 215411.0, -7.394050121307373, -10.393004417419434, -61.82389831542969, 0.008781925775110722, 0.048019375652074814, 0.001057456131093204, 0.0, 1.0, 0.0, 0.0, -1.375, 175, 1, -30, 193, -104, 0, -46, -7, -4, 4300, 4, 1, 0, 0, 27)
49.911844999797175, -98.2686700000173, 215411.203125, -8.433774948120117, -11.080954551696777, -61.347476959228516, -0.2031378597021103, -0.03148256242275238, -0.0002527537290006876, 0.0, 1.0, 0.0, 0.0, -1.375, 175, 1, -30, 193, -104, 0, -45, -7, -5, 4300, 4, 1, 0, 0, 27)
49.911844999797175, -98.2686700000173, 215411.40625, -9.769058227539062, -11.764330863952637, -62.45079803466797, -0.02219626121222973, -0.07271941751241684, -0.2872996926307678, 0.0, 1.0, 0.0, 0.0, -1.375, 175, 1, -30, 193, -104, 0, -45, -7, -5, 4300, 4, 1, 0, 0, 27)
49.911844999797175, -98.2686700000173, 215411.59375, -15.485036849975586, -7.795745372772217, -67.30420684814453, -0.18401555716991425, 0.43472933769226074, -0.6204902529716492, 0.0, 1.0, 0.0, 0.0, -1.375, 175, 1, -30, 193, -104, 0, -45, -7, -4, 4300, 4, 1, 0, 0, 27)
49.911844999797175, -98.2686700000173, 215411.796875, -17.1474552154541, -0.8892360329627991, -70.6878890991211, -0.16842390596866608, 0.23354852199554443, 0.07691394537687302, 0.0, 1.0, 0.0, 0.0, -1.375, 175, 1, -30, 193, -104, 0, -45, -7, -5, 4300, 4, 1, 0, 0, 27)
49.911844999797175, -98.2686700000173, 215412.09375, -19.154661178588867, 0.16627810895442963, -69.81316375732422, -0.1089145615696907, -0.07595113664865494, 0.19912338256835938, 0.0, 1.0, 0.0, 0.0, -1.375, 175, 1, -30, 193, -104, 0, -46, -7, -4, 4300, 4, 1, 0, 0, 27)
49.911844999797175, -98.2686700000173, 215412.296875, -19.174972534179688, -3.359663724899292, -68.43720245361328, 0.039633966982364655, -0.24119023978710175, -0.21449589729309082, 0.0, 1.0, 0.0, 0.0, -1.25, 175, 1, -30, 193, -104, 0, -45, -8, -4, 4300, 4, 1, 0, 0, 27)
49.911844999797175, -98.2686700000173, 215412.5, -19.21426010131836, -3.989250659942627, -69.81019592285156, 0.030087849125266075, 0.13102033734321594, -0.12480062246322632, 0.0, 1.0, 0.0, 0.0, -1.25, 175, 1, -30, 193, -104, 0, -45, -8, -4, 4300, 4, 1, 0, 0, 27)
49.911844999797175, -98.2686700000173, 215412.703125, -17.846637725830078, -2.383948802947998, -70.68863677978516, 0.13816913962364197, -0.0055167642422020435, 0.029391176998615265, 0.0, 1.0, 0.0, 0.0, -1.25, 175, 1, -30, 193, -104, 0, -45, -7, -4, 4300, 4, 1, 0, 0, 27)
49.911844999797175, -98.2686700000173, 215412.90625, -16.95176887512207, -3.63578462600708, -69.7892837524414, -0.012026375159621239, 0.021743981167674065, 0.08283250033855438, 0.0, 1.0, 0.0, 0.0, -1.25, 175, 1, -30, 193, -104, 0, -46, -8, -4, 4300, 4, 1, 0, 0, 27)
49.911844999797175, -98.2686700000173, 215413.09375, -16.31398582458496, -0.5399738550186157, -69.94920349121094, 0.019331272691488266, 0.3491106927394867, -0.029864633455872536, 0.0, 1.0, 0.0, 0.0, -1.3125, 175, 1, -30, 193, -104, 0, -47, -7, -4, 4300, 4, 1, 0, 0, 27)
49.911844999797175, -98.2686700000173, 215413.796875, -15.825130462646484, -5.278073787689209, -68.78455352783203, 0.05955205857753754, -0.3244500160217285, 0.013017073273658752, 0.0, 1.0, 0.0, 0.0, -1.3125, 175, 1, -30, 193, -104, 0, -45, -7, -5, 4200, 4, 1, 0, 0, 27)
49.911844999797175, -98.2686700000173, 215414.09375, -16.160093307495117, -6.93199348449707, -69.0748062133789, -0.020261652767658234, 0.11939793825149536, -0.08587860316038132, 0.0, 1.0, 0.0, 0.0, -1.3125, 175, 1, -30, 193, -104, 0, -45, -7, -6, 4300, 4, 1, 0, 0, 27)
49.911844999797175, -98.2686700000173, 215414.296875, -15.119365692138672, -4.714132308959961, -70.39170837402344, 0.12970827519893646, 0.04270872473716736, -0.04150870814919472, 0.0, 1.0, 0.0, 0.0, -1.1875, 175, 1, -30, 193, -104, 0, -45, -7, -6, 4300, 4, 1, 0, 0, 27)
49.911844999797175, -98.2686700000173, 215414.5, -15.119467735290527, -4.809007167816162, -70.33865356445312, -0.027342714369297028, -0.003071107668802142, 0.00960625521838665, 0.0, 1.0, 0.0, 0.0, -1.1875, 175, 1, -30, 193, -104, 0, -45, -7, -5, 4300, 4, 1, 0, 0, 27)
49.911844999797175, -98.2686700000173, 215414.703125, -15.056097984313965, -4.881691932678223, -70.11064147949219, -0.018334869295358658, 0.08834026753902435, 0.015469986014068127, 0.0, 1.0, 0.0, 0.0, -1.1875, 175, 1, -30, 193, -104, 0, -46, -7, -4, 4300, 4, 1, 0, 0, 27)
49.911844999797175, -98.2686700000173, 215414.90625, -14.464804649353027, -2.7174272537231445, -70.61543273925781, 0.05440995842218399, 0.19306868314743042, -0.057391535490751266, 0.0, 1.0, 0.0, 0.0, -1.1875, 175, 1, -30, 193, -104, 0, -45, -7, -4, 4300, 4, 1, 0, 0, 27)
49.911844999797175, -98.2686700000173, 215415.09375, -13.664246559143066, -2.3634283542633057, -70.86302185058594, 0.0764811635017395, -0.08016728609800339, 0.027602029964327812, 0.0, 1.0, 0.0, 0.0, -1.1875, 175, 1, -30, 193, -104, 0, -45, -7, -4, 4300, 4, 1, 0, 0, 27)
49.911844999797175, -98.2686700000173, 215415.296875, -13.158029556274414, -3.3647594451904297, -70.77012634277344, 0.03749062120914459, -0.06922295689582825, 0.018308378756046295, 0.0, 1.0, 0.0, 0.0, -1.1875, 175, 1, -30, 193, -104, 0, -45, -7, -4, 4300, 4, 1, 0, 0, 27)
49.911844999797175, -98.2686700000173, 215415.59375, -12.150744438171387, -2.6837215423583984, -70.9159927368164, 0.0407540462911129, 0.16456486284732819, -0.04546841233968735, 0.0, 1.0, 0.0, 0.0, -1.1875, 175, 1, -30, 193, -104, 0, -45, -7, -4, 4300, 4, 1, 0, 0, 27)
49.911844999797175, -98.2686700000173, 215415.796875, -12.588754653930664, -2.103245258331299, -71.2120132446289, -0.03229108825325966, -0.0934850424528122, 0.01875852420926094, 0.0, 1.0, 0.0, 0.0, -1.1875, 175, 1, -30, 193, -104, 0, -45, -7, -5, 4300, 4, 1, 0, 0, 27)
49.911844999797175, -98.2686700000173, 215416.09375, -12.645665168762207, -3.327897548675537, -70.99465942382812, 0.014494093134999275, -0.0744803249835968, 0.006751902401447296, 0.0, 1.0, 0.0, 0.0, -1.1875, 175, 1, -30, 193, -104, 0, -45, -7, -4, 4300, 4, 1, 0, 0, 27)
49.911844999797175, -98.2686700000173, 215416.296875, -12.922365188598633, -4.231014728546143, -70.59188842773438, -0.008317156694829464, 0.012097981758415699, 0.035514213144779205, 0.0, 1.0, 0.0, 0.0, -1.0625, 175, 1, -30, 193, -104, 0, -45, -7, -4, 4300, 4, 1, 0, 0, 27)
49.911844999797175, -98.2686700000173, 215416.5, -12.782041549682617, -6.187971115112305, -70.4211654663086, 0.08455932140350342, -0.21816742420196533, 0.04000841826200485, 0.0, 1.0, 0.0, 0.0, -1.0625, 175, 1, -30, 193, -104, 0, -46, -7, -4, 4300, 4, 1, 0, 0, 27)
49.911844999797175, -98.2686700000173, 215416.703125, -13.483332633972168, -6.203274250030518, -70.80682373046875, -0.004553609061986208, 0.2224961817264557, -0.12006334215402603, 0.0, 1.0, 0.0, 0.0, -1.0625, 175, 1, -30, 193, -104, 0, -45, -7, -5, 4300, 4, 1, 0, 0, 27)
49.911844999797175, -98.2686700000173, 215416.90625, -13.158506393432617, -4.293461322784424, -72.55873107910156, 0.031145714223384857, 0.15211452543735504, -0.12467177212238312, 0.0, 1.0, 0.0, 0.0, -1.0625, 175, 1, -30, 193, -104, 0, -45, -7, -4, 4300, 4, 1, 0, 0, 27)
49.911844999797175, -98.2686700000173, 215417.09375, -12.718971252441406, -2.3833365440368652, -74.47708892822266, 0.13343608379364014, -0.1219407469034195, -0.0648852214217186, 0.0, 1.0, 0.0, 0.0, -1.25, 175, 1, -30, 193, -104, 0, -45, -7, -4, 4300, 4, 1, 0, 0, 27)
49.911844999797175, -98.2686700000173, 215417.296875, -12.42121696472168, -4.336987495422363, -74.67411804199219, 0.024261802434921265, -0.15798798203468323, 0.046768639236688614, 0.0, 1.0, 0.0, 0.0, -1.25, 175, 1, -30, 193, -104, 0, -45, -7, -4, 4300, 4, 1, 0, 0, 27)
49.911844999797175, -98.2686700000173, 215417.59375, -11.59458065032959, -6.057297229766846, -73.7725830078125, 0.04108433425426483, -0.12249652296304703, 0.11543535441160202, 0.0, 1.0, 0.0, 0.0, -1.25, 175, 1, -30, 193, -104, 0, -45, -7, -4, 4300, 4, 1, 0, 0, 27)
49.911844999797175, -98.2686700000173, 215417.796875, -12.273941040039062, -6.7300615310668945, -72.45431518554688, -0.025221187621355057, 0.06108742207288742, 0.06163834035396576, 0.0, 1.0, 0.0, 0.0, -1.25, 175, 1, -30, 193, -104, 0, -46, -7, -4, 4300, 4, 1, 0, 0, 27)
49.911844999797175, -98.2686700000173, 215418.0, -11.884598731994629, -5.24106502532959, -72.22737884521484, 0.003902561031281948, 0.09398887306451797, 0.026095695793628693, 0.0, 1.0, 0.0, 0.0, -1.25, 175, 1, -30, 193, -104, 0, -45, -7, -4, 4300, 4, 1, 0, 0, 27)
49.911844999797175, -98.2686700000173, 215418.203125, -12.283308029174805, -5.124997138977051, -71.9338607788086, -0.00840820837765932, -0.02180001512169838, -0.005873322952538729, 0.0, 1.0, 0.0, 0.0, -1.375, 175, 1, -30, 193, -104, 0, -45, -7, -4, 4300, 4, 1, 0, 0, 27)
49.911844999797175, -98.2686700000173, 215418.5, -12.228025436401367, -5.081113815307617, -72.22268676757812, -0.03739660233259201, -0.014740926213562489, -0.022615807130932808, 0.0, 1.0, 0.0, 0.0, -1.375, 175, 1, -30, 193, -104, 0, -45, -7, -4, 4300, 4, 1, 0, 0, 27)
49.911844999797175, -98.2686700000173, 215418.703125, -12.168119430541992, -4.9757819175720215, -72.65135192871094, -0.008253682404756546, 0.17355862259864807, -0.04919345676898956, 0.0, 1.0, 0.0, 0.0, -1.375, 175, 1, -30, 193, -104, 0, -45, -7, -5, 4300, 4, 1, 0, 0, 27)
49.911844999797175, -98.2686700000173, 215418.90625, -11.585685729980469, -4.512766361236572, -73.0874252319336, 0.08809827268123627, -0.21211330592632294, 0.043973591178655624, 0.0, 1.0, 0.0, 0.0, -1.375, 175, 1, -30, 193, -104, 0, -45, -7, -4, 4300, 4, 1, 0, 0, 27)
49.911844999797175, -98.2686700000173, 215419.09375, -11.891347885131836, -4.528323173522949, -72.80445861816406, -0.004869773052632809, 0.13383567333221436, -0.025471467524766922, 0.0, 1.0, 0.0, 0.0, -1.375, 175, 1, -30, 193, -104, 0, -43, 6, -4, 4300, 4, 1, 0, 0, 27)
49.911844999797175, -98.2686700000173, 215419.296875, -11.922019004821777, -2.9935522079467773, -73.15522766113281, 0.009663824923336506, 0.00402267137542367, 7.350236410275102e-05, 0.0, 1.0, 0.0, 0.0, -1.375, 175, 1, -30, 193, -104, 0, -45, 5, -4, 4300, 4, 1, 0, 0, 27)
49.911844999797175, -98.2686700000173, 215419.59375, -12.247740745544434, -3.3425185680389404, -73.20298767089844, -0.044864263385534286, -0.0523730143904686, -0.004181157797574997, 0.0, 1.0, 0.0, 0.0, -1.375, 175, 1, -30, 193, -104, 0, -43, 27, -4, 4300, 4, 1, 0, 0, 27)
49.911844999797175, -98.2686700000173, 215419.796875, -12.03649616241455, -4.109279155731201, -73.0594711303711, -0.04336085543036461, 0.05610254034399986, 0.007726840674877167, 0.0, 1.0, 0.0, 0.0, -1.375, 175, 1, -30, 193, -104, 0, -45, 68, -4, 4300, 4, 1, 0, 0, 27)
49.911844999797175, -98.2686700000173, 215420.0, -11.241778373718262, -3.880615234375, -73.02749633789062, 0.0727236345410347, -0.10206391662359238, 0.05031011253595352, 0.0, 1.0, 0.0, 0.0, -1.375, 175, 1, -30, 193, -104, 0, -43, 98, -4, 4300, 4, 1, 0, 0, 27)
49.911844999797175, -98.2686700000173, 215420.203125, -11.199156761169434, -4.4926862716674805, -72.51129913330078, 0.015093987807631493, 0.03692200407385826, 0.009892662987112999, 0.0, 1.0, 0.0, 0.0, -1.25, 175, 1, -30, 193, -104, 0, -43, 121, -5, 4300, 4, 1, 0, 0, 27)
49.911844999797175, -98.2686700000173, 215420.40625, -10.7496919631958, -5.691516876220703, -72.23637390136719, 0.004713850095868111, -0.23485714197158813, 0.053907908499240875, 0.0, 1.0, 0.0, 0.0, -1.25, 175, 1, -30, 193, -104, 0, -43, 145, -5, 4300, 4, 1, 0, 0, 27)
49.911844999797175, -98.2686700000173, 215420.59375, -11.242094039916992, -6.939881324768066, -71.92769622802734, 0.016888543963432312, 0.006300671957433224, -0.006276597734540701, 0.0, 1.0, 0.0, 0.0, -1.25, 175, 1, -30, 193, -104, 0, -43, 156, -5, 4300, 4, 1, 0, 0, 27)
49.911844999797175, -98.2686700000173, 215420.90625, -10.823541641235352, -6.494562149047852, -72.02139282226562, 0.037099480628967285, -0.06733838468790054, 0.023335326462984085, 0.0, 1.0, 0.0, 0.0, -1.25, 175, 1, -30, 193, -104, 0, -43, 156, -4, 4300, 4, 1, 0, 0, 27)
49.911844999797175, -98.2686700000173, 215421.09375, -11.001901626586914, -6.303682327270508, -72.12489318847656, -0.01927666924893856, 0.14297552406787872, -0.029587842524051666, 0.0, 1.0, 0.0, 0.0, -1.3125, 175, 1, -30, 193, -104, 0, -43, 70, -4, 4300, 4, 1, 0, 0, 27)
49.911844999797175, -98.2686700000173, 215421.296875, -10.759450912475586, -4.8713765144348145, -72.4734878540039, 0.01039837021380663, 0.006290456745773554, -0.0013522922527045012, 0.0, 1.0, 0.0, 0.0, -1.3125, 175, 1, -30, 193, -104, 0, -43, -6, -5, 4300, 4, 1, 0, 0, 27)
49.911844999797175, -98.2686700000173, 215421.59375, -10.596755981445312, -4.644952774047852, -72.83061981201172, 0.048721350729465485, -0.1102781817317009, -0.014497180469334126, 0.0, 1.0, 0.0, 0.0, -1.3125, 175, 1, -30, 193, -104, 0, -32, -104, -4, 4300, 4, 1, 0, 0, 27)
49.911844999797175, -98.2686700000173, 215421.796875, -11.029951095581055, -3.9563229084014893, -73.39530944824219, 0.016018427908420563, 0.1802286058664322, -0.09061228483915329, 0.0, 1.0, 0.0, 0.0, -1.3125, 175, 1, -30, 193, -104, 0, -26, -168, -4, 4300, 4, 1, 0, 0, 27)
49.911844999797175, -98.2686700000173, 215422.0, -10.733210563659668, -0.2221730351448059, -74.97034454345703, 0.03784169256687164, 0.1575322300195694, -0.08384282141923904, 0.0, 1.0, 0.0, 0.0, -0.4375, 175, -15, -30, 193, -104, 0, -23, -162, -4, 4300, 4, 1, 0, 0, 27)
49.911844999797175, -98.2686700000173, 215422.203125, -10.39490032196045, -1.986100435256958, -74.8566665649414, -0.019223608076572418, -0.34577104449272156, 0.08445271849632263, 0.0, 1.0, 0.0, 0.0, -0.4375, 175, 0, -30, 193, -104, 0, -25, -93, -5, 4300, 4, 1, 0, 0, 27)
49.911844999797175, -98.2686700000173, 215422.40625, -11.172891616821289, -5.736688613891602, -73.77703857421875, -0.03765752911567688, -0.14388035237789154, 0.04864472150802612, 0.0, 1.0, 0.0, 0.0, -0.4375, 175, 0, -30, 193, -104, 0, -59, -5, -4, 4300, 4, 1, 0, 0, 27)
49.911844999797175, -98.2686700000173, 215422.59375, -11.449090003967285, -4.764070987701416, -73.7754898071289, -0.009082259610295296, 0.2964521050453186, -0.06221648305654526, 0.0, 1.0, 0.0, 0.0, -0.4375, 175, 0, -30, 193, -104, 0, -163, -8, -4, 4300, 4, 1, 0, 0, 27)
49.911844999797175, -98.2686700000173, 215422.90625, -10.537043571472168, -1.5927749872207642, -74.68505859375, 0.1416337937116623, 0.02229989320039749, -0.005369324702769518, 0.0, 1.0, 0.0, 0.0, -0.4375, 175, 0, -30, 193, -104, 0, -221, -8, -4, 4300, 4, 1, 0, 0, 27)
49.911844999797175, -98.2686700000173, 215423.09375, -10.055797576904297, -5.227978229522705, -73.46719360351562, -0.04459598287940025, -0.3070160150527954, 0.11386383324861526, 0.0, 1.0, 0.0, 0.0, -0.5, 175, 0, -30, 193, -104, 0, -218, -8, -4, 4300, 4, 1, 0, 0, 27)
49.911844999797175, -98.2686700000173, 215423.296875, -10.200654983520508, -5.533768177032471, -73.11151885986328, 0.03393366187810898, 0.152855783700943, -0.043147291988134384, 0.0, 1.0, 0.0, 0.0, -0.5, 175, 0, -30, 193, -104, 0, -78, 4, -4, 4300, 4, 1, 0, 0, 27)
49.911844999797175, -98.2686700000173, 215423.5, -9.779671669006348, -4.5657958984375, -73.59595489501953, -0.02085781842470169, 0.01848733238875866, -0.03911159560084343, 0.0, 1.0, 0.0, 0.0, -0.5, 175, 0, -30, 193, -104, 0, 2, 10, -4, 4300, 4, 1, 0, 0, 27)
49.911844999797175, -98.2686700000173, 215423.703125, -10.133569717407227, -4.420174598693848, -74.12700653076172, -0.015352748334407806, 0.01957787573337555, -0.04268384724855423, 0.0, 1.0, 0.0, 0.0, -0.5, 175, 0, -30, 193, -104, 0, 54, 18, -4, 4300, 4, 1, 0, 0, 27)
49.911844999797175, -98.2686700000173, 215424.0, -9.967333793640137, -4.568704128265381, -74.37445831298828, 0.01529004331678152, -0.02757851406931877, 0.004161580465734005, 0.0, 1.0, 0.0, 0.0, -1.3125, 175, 1, -30, 193, -104, 0, 93, 17, -4, 4300, 4, 1, 0, 0, 27)
49.911844999797175, -98.2686700000173, 215424.203125, -10.21613883972168, -4.5867838859558105, -74.27484893798828, -0.01221909373998642, -0.01376919262111187, 0.0208230372518301, 0.0, 1.0, 0.0, 0.0, -1.3125, 175, 1, -30, 193, -104, 0, 111, 12, -5, 4300, 4, 1, 0, 0, 27)
49.911844999797175, -98.2686700000173, 215424.40625, -10.520971298217773, -4.581918716430664, -73.92288208007812, -0.0032884087413549423, 0.0457187220454216, 0.036816321313381195, 0.0, 1.0, 0.0, 0.0, -1.3125, 175, 1, -30, 193, -104, 0, 0, 25, -5, 4300, 4, 1, 0, 0, 27)
49.911844999797175, -98.2686700000173, 215424.59375, -10.37826919555664, -3.679783344268799, -73.692626953125, 0.005805722437798977, 0.08607608079910278, -0.0015991933178156614, 0.0, 1.0, 0.0, 0.0, -1.3125, 175, 1, -30, 193, -104, 0, -49, 20, -4, 4300, 4, 1, 0, 0, 27)
49.911844999797175, -98.2686700000173, 215424.90625, -10.011178016662598, -3.5658605098724365, -73.87486267089844, 0.014778903685510159, -0.06471992284059525, -0.010505223646759987, 0.0, 1.0, 0.0, 0.0, -1.3125, 175, 1, -30, 193, -104, 0, -53, 25, -53, 4300, 4, 1, 0, 0, 27)
49.911844999797175, -98.2686700000173, 215425.09375, -10.114603996276855, -4.304063320159912, -74.08747100830078, 0.0016979184001684189, -0.04589910805225372, -0.02752896025776863, 0.0, 1.0, 0.0, 0.0, -0.5625, 175, 0, -30, 193, -104, 0, -53, 24, -109, 4300, 4, 1, 0, 0, 27)
49.911844999797175, -98.2686700000173, 215425.296875, -10.111207008361816, -4.227250576019287, -74.56499481201172, 0.005174371413886547, -0.002460407093167305, -0.03822994977235794, 0.0, 1.0, 0.0, 0.0, -0.5625, 175, 0, -30, 193, -104, 0, -53, 25, -143, 4300, 4, 1, 0, 0, 27)
49.911844999797175, -98.2686700000173, 215425.5, -9.955767631530762, -4.353487968444824, -74.65367126464844, 0.02500791661441326, 0.006585124880075455, 0.017913274466991425, 0.0, 1.0, 0.0, 0.0, -0.5625, 175, 0, -30, 193, -104, 0, -51, 25, -75, 4300, 4, 1, 0, 0, 27)
49.911844999797175, -98.2686700000173, 215425.703125, -9.856069564819336, -3.483924627304077, -74.40261840820312, 0.027020800858736038, 0.036635395139455795, 0.008649551309645176, 0.0, 1.0, 0.0, 0.0, -0.5625, 175, 0, -30, 193, -104, 0, -48, 25, -4, 4300, 4, 1, 0, 0, 27)
49.911844999797175, -98.2686700000173, 215426.0, -9.884732246398926, -4.301897048950195, -74.08721160888672, -0.03495056927204132, -0.04710181802511215, 0.02436358667910099, 0.0, 1.0, 0.0, 0.0, -0.5625, 175, 0, -30, 193, -104, 0, -45, 24, 63, 4300, 4, 1, 0, 0, 27)
49.911844999797175, -98.2686700000173, 215426.203125, -9.86919116973877, -4.79241418838501, -73.9372787475586, -0.0007208166643977165, 0.010985839180648327, 0.001346271950751543, 0.0, 1.0, 0.0, 0.0, -0.5625, 175, 0, -30, 193, -104, 0, -45, 20, 56, 4300, 4, 1, 0, 0, 27)
49.911844999797175, -98.2686700000173, 215426.40625, -9.967497825622559, -5.18004846572876, -73.80187225341797, -0.03417055308818817, 0.007807301823049784, -0.008104036562144756, 0.0, 1.0, 0.0, 0.0, -0.5625, 175, 0, -30, 193, -104, 0, -45, 21, 15, 4300, 4, 1, 0, 0, 27)
49.911844999797175, -98.2686700000173, 215426.59375, -10.00792121887207, -4.442212104797363, -74.1606216430664, 0.004751711152493954, 0.029059287160634995, -0.0250555370002985, 0.0, 1.0, 0.0, 0.0, -0.5625, 175, 0, -30, 193, -104, 0, -45, -7, -4, 4300, 4, 1, 0, 0, 27)
49.911844999797175, -98.2686700000173, 215426.796875, -9.994007110595703, -3.2611591815948486, -74.57695770263672, 0.04497818648815155, 0.021937884390354156, -0.028420191258192062, 0.0, 1.0, 0.0, 0.0, -0.5625, 175, 0, -30, 193, -104, 0, -45, -5, -4, 4300, 4, 1, 0, 0, 27)
49.911844999797175, -98.2686700000173, 215427.09375, -10.013222694396973, -5.294981002807617, -74.08081817626953, -0.0645732432603836, -0.2567836344242096, 0.09017544984817505, 0.0, 1.0, 0.0, 0.0, -0.625, 175, 0, -30, 193, -104, 0, -46, -5, -4, 4300, 4, 1, 0, 0, 27)
49.911844999797175, -98.2686700000173, 215427.5, -9.65943431854248, -4.717112064361572, -72.83501434326172, 0.17516328394412994, 0.07306630909442902, 0.0612371526658535, 0.0, 1.0, 0.0, 0.0, -0.625, 175, 0, -30, 193, -104, 0, -45, -5, -4, 4300, 4, 1, 0, 0, 27)
49.911844999797175, -98.2686700000173, 215427.703125, -9.192378997802734, -4.706177711486816, -72.71357727050781, 0.023378845304250717, 0.0029689567163586617, -0.01239018514752388, 0.0, 1.0, 0.0, 0.0, -0.625, 175, 0, -30, 193, -104, 0, -45, -5, -4, 4300, 4, 1, 0, 0, 27)
49.911844999797175, -98.2686700000173, 215428.0, -9.170754432678223, -4.3832244873046875, -73.13917541503906, 0.026194114238023758, 0.03599461168050766, -0.05559256300330162, 0.0, 1.0, 0.0, 0.0, -0.625, 175, 0, -30, 193, -104, 0, -45, -5, -4, 4300, 4, 1, 0, 0, 27)
49.911844999797175, -98.2686700000173, 215428.203125, -9.236018180847168, -3.1531758308410645, -74.17733001708984, -0.0230257585644722, 0.04813706874847412, -0.1026933342218399, 0.0, 1.0, 0.0, 0.0, -1.375, 175, 1, -30, 193, -104, 0, -45, -5, -4, 4300, 4, 1, 0, 0, 27)
49.911844999797175, -98.2686700000173, 215428.40625, -9.629539489746094, -4.194461822509766, -74.82414245605469, -0.039736777544021606, -0.16285459697246552, -0.000272983917966485, 0.0, 1.0, 0.0, 0.0, -1.375, 175, 1, -30, 193, -104, 0, -46, -5, -4, 4300, 4, 1, 0, 0, 27)
49.911844999797175, -98.2686700000173, 215428.59375, -9.525137901306152, -5.603921413421631, -74.53109741210938, -0.001750962808728218, 0.03709716349840164, 0.01269808690994978, 0.0, 1.0, 0.0, 0.0, -1.375, 175, 1, -30, 193, -104, 0, -45, -5, -4, 4300, 4, 1, 0, 0, 27)
49.911844999797175, -98.2686700000173, 215428.796875, -9.340686798095703, -4.697307586669922, -74.5011978149414, -0.019944269210100174, 0.06065157800912857, 0.011547558009624481, 0.0, 1.0, 0.0, 0.0, -1.375, 175, 1, -30, 193, -104, 0, -45, -6, -4, 4300, 4, 1, 0, 0, 27)
49.911844999797175, -98.2686700000173, 215429.0, -9.360855102539062, -4.403994560241699, -74.29501342773438, -0.0012572603300213814, 0.07346004992723465, -0.0026233599055558443, 0.0, 1.0, 0.0, 0.0, -1.3125, 175, 1, -30, 193, -104, 0, -45, -5, -6, 4300, 4, 1, 0, 0, 27)
49.911844999797175, -98.2686700000173, 215429.203125, -8.151796340942383, -4.113999366760254, -73.84934997558594, 0.29305407404899597, 0.03935215622186661, 0.09392603486776352, 0.0, 1.0, 0.0, 0.0, -1.3125, 175, 1, -30, 193, -104, 0, -45, -5, -6, 4300, 4, 1, 0, 0, 27)
49.911844999797175, -98.2686700000173, 215429.5, -6.659570217132568, -3.365262269973755, -73.38059997558594, 0.3036789000034332, -0.021978246048092842, 0.03417440876364708, 0.0, 1.0, 0.0, 0.0, -1.3125, 175, 1, -30, 193, -104, 0, -45, -5, -6, 4300, 4, 1, 0, 0, 27)
49.911844999797175, -98.2686700000173, 215429.703125, -7.043725490570068, -3.2811717987060547, -73.59880828857422, -0.021489057689905167, 0.06527896970510483, -0.03403623774647713, 0.0, 1.0, 0.0, 0.0, -1.3125, 175, 1, -30, 193, -104, 0, -45, -5, -6, 4300, 4, 1, 0, 0, 27)
49.911844999797175, -98.2686700000173, 215429.90625, -7.382486343383789, -2.9468257427215576, -74.645751953125, 0.03026513010263443, 0.01802644692361355, -0.11308864504098892, 0.0, 1.0, 0.0, 0.0, -1.1875, 175, 1, -30, 193, -104, 0, -45, -5, -7, 4300, 4, 1, 0, 0, 27)
49.911844999797175, -98.2686700000173, 215430.09375, -6.394434452056885, -3.9958760738372803, -75.21223449707031, 0.05282246321439743, -0.06557625532150269, 0.009167108684778214, 0.0, 1.0, 0.0, 0.0, -1.1875, 175, 1, -30, 193, -104, 0, -45, -5, -4, 4300, 4, 1, 0, 0, 27)
49.911844999797175, -98.2686700000173, 215430.40625, -6.410430431365967, -3.475335121154785, -75.15757751464844, 0.13685967028141022, 0.033746153116226196, 0.02193622663617134, 0.0, 1.0, 0.0, 0.0, -1.1875, 175, 1, -30, 193, -104, 0, -45, -5, -4, 4300, 4, 1, 0, 0, 27)
49.911844999797175, -98.2686700000173, 215430.59375, -5.418871879577637, -2.156376361846924, -74.94703674316406, -0.03759877756237984, 0.015940308570861816, 0.05572285130620003, 0.0, 1.0, 0.0, 0.0, -1.1875, 175, 1, -30, 193, -104, 0, -45, -5, -4, 4300, 4, 1, 0, 0, 27)
49.911844999797175, -98.2686700000173, 215430.796875, -7.00451135635376, -2.543461799621582, -74.30052185058594, -0.26811859011650085, -0.07702822238206863, 0.009149867109954357, 0.0, 1.0, 0.0, 0.0, -1.1875, 175, 1, -30, 193, -104, 0, -45, -5, -4, 4300, 4, 1, 0, 0, 27)
49.911844999797175, -98.2686700000173, 215431.0, -7.306180477142334, -5.456912517547607, -73.40481567382812, -0.1541891247034073, -0.22331273555755615, 0.04874920845031738, 0.0, 1.0, 0.0, 0.0, -0.4375, 175, 0, -30, 193, -104, 0, -45, -5, -4, 4300, 4, 1, 0, 0, 27)
49.911844999797175, -98.2686700000173, 215431.203125, -7.837061882019043, -5.737240314483643, -73.29369354248047, -0.019660968333482742, 0.1760963797569275, -0.0963297188282013, 0.0, 1.0, 0.0, 0.0, -0.4375, 175, 0, -30, 193, -104, 0, -45, -5, -5, 4300, 4, 1, 0, 0, 27)
49.911844999797175, -98.2686700000173, 215431.5, -8.389910697937012, -4.474367618560791, -74.36920166015625, -0.014490178786218166, 0.03966948390007019, -0.09689366817474365, 0.0, 1.0, 0.0, 0.0, -0.4375, 175, 0, -30, 193, -104, 0, -45, -5, -4, 4300, 4, 1, 0, 0, 27)
49.911844999797175, -98.2686700000173, 215431.703125, -8.958088874816895, -4.89186954498291, -74.76508331298828, -0.040580958127975464, -0.17827805876731873, 0.016477003693580627, 0.0, 1.0, 0.0, 0.0, -0.4375, 175, 0, -30, 193, -104, 0, -45, -5, -4, 4300, 4, 1, 0, 0, 27)
49.911844999797175, -98.2686700000173, 215431.90625, -9.575725555419922, -6.911013126373291, -74.27960205078125, -0.03352067619562149, -0.05709616467356682, 0.0363771952688694, 0.0, 1.0, 0.0, 0.0, -1.25, 175, 1, -30, 193, -104, 0, -46, -5, -4, 4300, 4, 1, 0, 0, 27)
49.911844999797175, -98.2686700000173, 215432.09375, -9.332549095153809, -6.726025581359863, -73.93431091308594, 0.037036724388599396, 0.06832356005907059, 0.013144753873348236, 0.0, 1.0, 0.0, 0.0, -1.25, 175, 1, -30, 193, -104, 0, -45, -5, -4, 4300, 4, 1, 0, 0, 27)
49.911844999797175, -98.2686700000173, 215432.40625, -9.220383644104004, -5.449815273284912, -74.1640853881836, -0.03246480971574783, 0.16202110052108765, -0.05924904718995094, 0.0, 1.0, 0.0, 0.0, -1.25, 175, 1, -30, 193, -104, 0, -45, -5, -5, 4300, 4, 1, 0, 0, 27)
49.911844999797175, -98.2686700000173, 215432.59375, -9.243124961853027, -5.3234124183654785, -74.50869750976562, 0.02591998130083084, -0.18002866208553314, 0.03750399872660637, 0.0, 1.0, 0.0, 0.0, -1.25, 175, 1, -30, 193, -104, 0, -45, -5, -5, 4300, 4, 1, 0, 0, 27)
49.911844999797175, -98.2686700000173, 215432.796875, -9.300985336303711, -7.6125688552856445, -74.2223892211914, 0.017614820972085, -0.08822455257177353, 0.007599621079862118, 0.0, 1.0, 0.0, 0.0, -1.25, 175, 1, -30, 193, -104, 0, -45, -6, -4, 4300, 4, 1, 0, 0, 27)
49.911844999797175, -98.2686700000173, 215433.0, -8.942304611206055, -8.358863830566406, -73.82365417480469, -0.01781536266207695, -0.0070830220356583595, 0.03644838556647301, 0.0, 1.0, 0.0, 0.0, -0.4375, 175, 0, -30, 193, -104, 0, -45, -6, -5, 4300, 4, 1, 0, 0, 27)
49.911844999797175, -98.2686700000173, 215433.203125, -9.095158576965332, -5.657368183135986, -74.19304656982422, 0.024586636573076248, 0.25592127442359924, -0.0717124342918396, 0.0, 1.0, 0.0, 0.0, -0.4375, 175, 0, -30, 193, -104, 0, -45, -6, -5, 4300, 4, 1, 0, 0, 27)
49.911844999797175, -98.2686700000173, 215433.5, -8.94019603729248, -4.399520397186279, -74.72541809082031, -0.04433179646730423, -0.04740879684686661, -0.014098639599978924, 0.0, 1.0, 0.0, 0.0, -0.4375, 175, 0, -30, 193, -104, 0, -46, -6, -4, 4300, 4, 1, 0, 0, 27)
49.911844999797175, -98.2686700000173, 215433.703125, -9.107954025268555, -5.235179901123047, -74.64219665527344, -0.009561375714838505, -0.06924369931221008, 0.02226979099214077, 0.0, 1.0, 0.0, 0.0, -0.4375, 175, 0, -30, 193, -104, 0, -46, -5, -4, 4300, 4, 1, 0, 0, 27)
49.911844999797175, -98.2686700000173, 215433.90625, -9.2350435256958, -5.468626022338867, -74.28641510009766, -0.0016412781551480293, 0.16194681823253632, -0.02511722967028618, 0.0, 1.0, 0.0, 0.0, -1.25, 175, 1, -30, 193, -104, 0, -46, -5, -4, 4300, 4, 1, 0, 0, 27)
49.911844999797175, -98.2686700000173, 215434.09375, -8.772972106933594, -4.630181789398193, -74.58063507080078, 0.03944123908877373, -0.1811261922121048, 0.03860451653599739, 0.0, 1.0, 0.0, 0.0, -1.25, 175, 1, -30, 193, -104, 0, -46, -5, -5, 4300, 4, 1, 0, 0, 27)
49.911844999797175, -98.2686700000173, 215434.296875, -8.448486328125, -7.667130947113037, -73.78038787841797, 0.03599822521209717, -0.09687307476997375, 0.0419522263109684, 0.0, 1.0, 0.0, 0.0, -1.25, 175, 1, -30, 193, -104, 0, -45, -5, -5, 4300, 4, 1, 0, 0, 27)
49.911844999797175, -98.2686700000173, 215434.5, -8.010392189025879, -5.445343494415283, -74.18011474609375, 0.07675816863775253, 0.12061898410320282, -0.029860252514481544, 0.0, 1.0, 0.0, 0.0, -1.25, 175, 1, -30, 193, -104, 0, -45, -5, -5, 4300, 4, 1, 0, 0, 27)
49.911844999797175, -98.2686700000173, 215434.796875, -8.028624534606934, -5.4659271240234375, -74.02010345458984, -0.04981257766485214, -0.08746308088302612, 0.04884021356701851, 0.0, 1.0, 0.0, 0.0, -1.25, 175, 1, -30, 193, 2, 0, -45, -6, -4, 3100, 4, 1, 0, 0, 27)
49.911844999797175, -98.2686700000173, 215435.0, -7.935023784637451, -5.886507511138916, -73.42041778564453, 0.0491270050406456, -0.02283107116818428, 0.037632055580616, 0.0, 1.0, 0.0, 0.0, -0.5, 175, 0, -30, 193, 2, 0, -45, -5, -4, 3100, 4, 1, 0, 0, 27)
49.911844999797175, -98.2686700000173, 215435.203125, -7.886603832244873, -6.106273174285889, -73.33845520019531, -0.005450584460049868, -0.02235868200659752, -0.0331367626786232, 0.0, 1.0, 0.0, 0.0, -0.5, 175, 0, -30, 193, 2, 0, -45, -5, -4, 3100, 4, 1, 0, 0, 27)
49.911844999797175, -98.2686700000173, 215435.5, -8.179153442382812, -6.296163558959961, -74.26576232910156, -0.02573349140584469, -0.0015923995524644852, -0.11602329462766647, 0.0, 1.0, 0.0, 0.0, -0.5, 175, 0, -30, 193, 2, 0, -46, -5, -4, 3100, 4, 1, 0, 0, 27)
49.911844999797175, -98.2686700000173, 215435.703125, -8.295210838317871, -6.015606880187988, -76.04681396484375, 0.012896173633635044, 0.012103131040930748, -0.16203556954860687, 0.0, 1.0, 0.0, 0.0, -0.5, 175, 0, -30, 193, 2, 0, -45, -5, -5, 4300, 4, 1, 0, 0, 27)
49.911844999797175, -98.2686700000173, 215435.90625, -7.980381488800049, -5.265052318572998, -78.54550170898438, 0.07120797038078308, 0.013907901011407375, -0.20406118035316467, 0.0, 1.0, 0.0, 0.0, -0.4375, 175, 0, -30, 193, 2, 0, -45, -5, -4, 4300, 4, 1, 0, 0, 27)
49.911844999797175, -98.2686700000173, 215436.09375, -7.1362504959106445, -6.208642959594727, -80.63780975341797, 0.09686587005853653, -0.15796230733394623, -0.12588205933570862, 0.0, 1.0, 0.0, 0.0, -0.4375, 175, 0, -30, 193, 2, 0, -45, -5, -4, 4300, 4, 1, 0, 0, 27)
49.911844999797175, -98.2686700000173, 215436.296875, -5.9324517250061035, -7.484017848968506, -82.20563507080078, 0.06741922348737717, -0.02688925713300705, -0.11800543963909149, 0.0, 1.0, 0.0, 0.0, -0.4375, 175, 0, -30, 193, 2, 0, -45, -5, -4, 3100, 4, 1, 0, 0, 27)
49.911844999797175, -98.2686700000173, 215436.5, -6.105514049530029, -6.44465446472168, -83.9199447631836, 0.014024166390299797, 0.1133987084031105, -0.10774917155504227, 0.0, 1.0, 0.0, 0.0, -0.4375, 175, 0, -30, 193, 2, 0, -45, -5, -5, 3100, 4, 1, 0, 0, 27)
49.911844999797175, -98.2686700000173, 215436.703125, -6.037801742553711, -5.69011116027832, -84.41938781738281, 0.0169273279607296, 0.026581550016999245, -0.0011369840940460563, 0.0, 1.0, 0.0, 0.0, -0.4375, 175, 0, -30, 193, 2, 0, -45, -5, -4, 3100, 4, 1, 0, 0, 27)
49.911844999797175, -98.2686700000173, 215437.0, -6.384377479553223, -4.772171497344971, -84.4327392578125, -0.06457261741161346, 0.1084454357624054, 0.022612202912569046, 0.0, 1.0, 0.0, 0.0, -1.1875, 175, 1, -30, 193, 2, 0, -45, -5, -4, 3100, 4, 1, 0, 0, 27)
49.911844999797175, -98.2686700000173, 215437.203125, -6.996790885925293, -3.798349142074585, -81.8855209350586, -0.059644874185323715, 0.14697562158107758, 0.33447107672691345, 0.0, 1.0, 0.0, 0.0, -1.1875, 175, 1, -30, 193, 2, 0, -46, -5, -4, 3100, 4, 1, 0, 0, 27)
49.911844999797175, -98.2686700000173, 215437.40625, -5.820357322692871, -4.723425388336182, -76.4936294555664, 0.16874365508556366, -0.14141786098480225, 0.502052903175354, 0.0, 1.0, 0.0, 0.0, -1.1875, 175, 1, -30, 193, 2, 0, -46, -5, -4, 3100, 4, 1, 0, 0, 27)
49.911844999797175, -98.2686700000173, 215437.90625, -5.597979545593262, -7.880982398986816, -59.82539749145508, -0.2025507688522339, 0.31674379110336304, 0.7064105272293091, 0.0, 1.0, 0.0, 0.0, -1.0625, 175, 1, -30, 193, 2, 0, -45, -5, -4, 4300, 4, 1, 0, 0, 27)
49.911844999797175, -98.2686700000173, 215438.09375, -5.627522945404053, -4.155071258544922, -53.6661491394043, 0.06134713813662529, 0.29945287108421326, 0.25676244497299194, 0.0, 1.0, 0.0, 0.0, -1.0625, 175, 1, -30, 193, 2, 0, -45, -5, -4, 2600, 4, 1, 0, 0, 27)
49.911844999797175, -98.2686700000173, 215438.296875, -4.523276329040527, -2.5941216945648193, -54.66307830810547, -0.06039723381400108, 0.0038983686827123165, -0.3122894763946533, 0.0, 1.0, 0.0, 0.0, -1.0625, 175, 1, -30, 193, 2, 0, -45, -5, -5, 2600, 4, 1, 0, 0, 27)
49.911844999797175, -98.2686700000173, 215438.5, -5.40608024597168, -3.3259170055389404, -59.53310012817383, 0.11654113233089447, -0.37916433811187744, -0.4071803689002991, 0.0, 1.0, 0.0, 0.0, -1.0625, 175, 1, -30, 193, 2, 0, -45, -5, -4, 2600, 4, 1, 0, 0, 27)
49.911844999797175, -98.2686700000173, 215438.703125, -3.9937407970428467, -9.258208274841309, -64.700927734375, 0.022356070578098297, -0.4797895550727844, -0.44087618589401245, 0.0, 1.0, 0.0, 0.0, -1.0625, 175, 1, -30, 193, 2, 0, -45, -5, -4, 2600, 4, 1, 0, 0, 27)
49.911844999797175, -98.2686700000173, 215439.0, -5.337779521942139, -11.623248100280762, -72.95355987548828, 0.07104434072971344, -0.08134446293115616, -0.7524133920669556, 0.0, 1.0, 0.0, 0.0, -0.5, 175, 0, -30, 193, 2, 0, -45, -5, -4, 2600, 4, 1, 0, 0, 27)
49.911844999797175, -98.2686700000173, 215439.203125, -6.950709819793701, -11.764718055725098, -82.03739166259766, 0.009624137543141842, -0.09273697435855865, -0.6205296516418457, 0.0, 1.0, 0.0, 0.0, -0.5, 175, 0, -30, 193, 2, 0, -45, -5, -4, 2600, 4, 1, 0, 0, 27)
49.911844999797175, -98.2686700000173, 215439.59375, -7.5962677001953125, -11.989370346069336, -88.05449676513672, -0.005377219524234533, -0.04043872654438019, 0.06588274985551834, 0.0, 1.0, 0.0, 0.0, -0.5, 175, 0, -30, 193, 2, 0, -45, -5, -4, 2500, 4, 1, 0, 0, 27)
49.911844999797175, -98.2686700000173, 215439.796875, -7.408692359924316, -11.712869644165039, -87.2390365600586, -0.0113457553088665, 0.09291692078113556, 0.04710788652300835, 0.0, 1.0, 0.0, 0.0, -0.5, 175, 0, -30, 193, 2, 0, -45, -5, -4, 4300, 4, 1, 0, 0, 27)
49.911844999797175, -98.2686700000173, 215440.5, -5.341357707977295, -9.131256103515625, -90.24898529052734, -0.05625643581151962, -0.2851819694042206, 0.05136338621377945, 0.0, 1.0, 0.0, 0.0, -0.625, 175, 0, -30, 193, 2, 0, -45, -5, -4, 2500, 4, 1, 0, 0, 27)
49.911844999797175, -98.2686700000173, 215440.703125, -6.29213285446167, -10.939322471618652, -89.7820816040039, -0.06265454739332199, 0.04159705340862274, -0.019307514652609825, 0.0, 1.0, 0.0, 0.0, -0.625, 175, 0, -30, 193, 2, 0, -46, -5, -4, 2500, 4, 1, 0, 0, 27)
49.911844999797175, -98.2686700000173, 215441.0, -5.779685974121094, -10.614306449890137, -90.00497436523438, 0.052531227469444275, 0.03226841241121292, -0.030099879950284958, 0.0, 1.0, 0.0, 0.0, -1.3125, 175, 1, -30, 193, 2, 0, -45, -5, -4, 2500, 4, 1, 0, 0, 27)
49.911844999797175, -98.2686700000173, 215441.203125, -5.362562656402588, -10.228095054626465, -89.91163635253906, -0.0017540408298373222, 0.016181299462914467, 0.08076483011245728, 0.0, 1.0, 0.0, 0.0, -1.3125, 175, 1, -30, 193, 2, 0, -45, -5, -4, 2500, 4, 1, 0, 0, 27)
49.911844999797175, -98.2686700000173, 215441.40625, -6.381388187408447, -10.091320991516113, -89.21353912353516, -0.05430242791771889, -0.04060763120651245, 0.061510682106018066, 0.0, 1.0, 0.0, 0.0, -1.3125, 175, 1, -30, 193, 2, 0, -45, -5, -4, 2600, 4, 1, 0, 0, 27)
49.911844999797175, -98.2686700000173, 215441.59375, -5.208474636077881, -9.673115730285645, -88.46819305419922, 0.09632040560245514, 0.1710161715745926, 0.037618592381477356, 0.0, 1.0, 0.0, 0.0, -1.3125, 175, 1, -30, 193, 2, 0, -45, -5, -5, 2600, 4, 1, 0, 0, 27)
49.911844999797175, -98.2686700000173, 215441.796875, -4.036730766296387, -8.181248664855957, -88.36029052734375, 0.055895671248435974, 0.044765323400497437, 0.02142724208533764, 0.0, 1.0, 0.0, 0.0, -0.5, 175, 0, -30, 193, 2, 0, -45, -5, -4, 4300, 4, 1, 0, 0, 27)
49.911844999797175, -98.2686700000173, 215442.0, -3.4350850582122803, -7.768442630767822, -88.46260070800781, 0.08580047637224197, 0.009518800303339958, -0.006976013071835041, 0.0, 1.0, 0.0, 0.0, -0.5, 175, 0, -30, 193, 2, 0, -45, -5, -4, 4300, 4, 1, 0, 0, 27)
49.911844999797175, -98.2686700000173, 215442.296875, -3.8830783367156982, -7.706857204437256, -88.60488891601562, -0.05388781428337097, 0.07068827748298645, -0.06882379949092865, 0.0, 1.0, 0.0, 0.0, -0.5, 175, 0, -30, 193, 2, 0, -45, -5, -5, 4300, 4, 1, 0, 0, 27)
49.911844999797175, -98.2686700000173, 215442.5, -3.000426769256592, -6.310890197753906, -89.80860137939453, 0.0736706405878067, 0.0768139511346817, -0.08410603553056717, 0.0, 1.0, 0.0, 0.0, -0.5, 175, 0, -30, 193, 2, 0, -45, -5, -4, 4300, 4, 1, 0, 0, 27)
49.911844999797175, -98.2686700000173, 215442.703125, -2.4320592880249023, -6.078343391418457, -90.41207122802734, 0.10593897104263306, -0.025272736325860023, 0.009225834161043167, 0.0, 1.0, 0.0, 0.0, -0.5, 175, 0, -30, 193, 2, 0, -45, -5, -4, 4300, 4, 1, 0, 0, 27)
49.911844999797175, -98.2686700000173, 215443.0, -2.6333768367767334, -7.046813488006592, -89.8082275390625, -0.06450582295656204, -0.10010433197021484, 0.040827181190252304, 0.0, 1.0, 0.0, 0.0, -0.4375, 175, 0, -30, 193, 2, 0, -45, -6, -4, 4300, 4, 1, 0, 0, 27)
49.911844999797175, -98.2686700000173, 215443.203125, -2.820873260498047, -7.414917945861816, -89.14299011230469, -0.019567599520087242, -0.0053802295587956905, 0.03375078737735748, 0.0, 1.0, 0.0, 0.0, -0.4375, 175, 0, -30, 193, 2, 0, -45, -6, -4, 4300, 4, 1, 0, 0, 27)
49.911844999797175, -98.2686700000173, 215443.40625, -2.8658602237701416, -6.690914630889893, -89.0248031616211, 0.027514442801475525, 0.013196360319852829, 0.011805717833340168, 0.0, 1.0, 0.0, 0.0, -0.4375, 175, 0, -30, 193, 2, 0, -45, -7, -4, 4300, 4, 1, 0, 0, 27)
49.911844999797175, -98.2686700000173, 215443.59375, -3.2102713584899902, -7.858201503753662, -88.49701690673828, -0.06156429275870323, -0.14440836012363434, 0.026886047795414925, 0.0, 1.0, 0.0, 0.0, -0.4375, 175, 0, -30, 193, 2, 0, -46, -6, -4, 4300, 4, 1, 0, 0, 27)
49.911844999797175, -98.2686700000173, 215443.796875, -3.1358022689819336, -7.349475383758545, -88.77691650390625, 0.032501235604286194, 0.1129789873957634, -0.06286139786243439, 0.0, 1.0, 0.0, 0.0, -0.4375, 175, 0, -30, 193, 2, 0, -46, -5, -4, 4300, 4, 1, 0, 0, 27)
49.911844999797175, -98.2686700000173, 215444.0, -2.591512680053711, -6.926066875457764, -88.71493530273438, 0.0492696687579155, -0.013544091954827309, 0.03743652626872063, 0.0, 1.0, 0.0, 0.0, -0.4375, 175, 0, -30, 193, 2, 0, -46, -5, -4, 4300, 4, 1, 0, 0, 27)
49.911844999797175, -98.2686700000173, 215444.296875, -2.8777501583099365, -7.167034149169922, -87.79823303222656, -0.057141806930303574, -0.04840363562107086, 0.06314023584127426, 0.0, 1.0, 0.0, 0.0, -0.4375, 175, 0, -30, 193, 2, 0, -45, -5, -5, 4300, 4, 1, 0, 0, 27)
49.911844999797175, -98.2686700000173, 215444.5, -2.693476676940918, -7.9634785652160645, -86.74510955810547, 0.022040199488401413, -0.034419041126966476, 0.07870209217071533, 0.0, 1.0, 0.0, 0.0, -0.4375, 175, 0, -30, 193, 2, 0, -45, -5, -5, 4300, 4, 1, 0, 0, 27)
49.911844999797175, -98.2686700000173, 215444.703125, -2.3920202255249023, -7.316946506500244, -86.42121124267578, 0.04974335432052612, 0.07658563554286957, -0.014959467574954033, 0.0, 1.0, 0.0, 0.0, -0.4375, 175, 0, -30, 193, 2, 0, -46, -5, -5, 4300, 4, 1, 0, 0, 27)
49.911844999797175, -98.2686700000173, 215444.90625, -1.9401072263717651, -6.699325084686279, -86.92528533935547, 0.03454834595322609, -0.06882183998823166, -0.017122965306043625, 0.0, 1.0, 0.0, 0.0, -0.4375, 175, 0, -30, 193, 2, 0, -45, -5, -4, 4300, 4, 1, 0, 0, 27)
49.911844999797175, -98.2686700000173, 215445.09375, -2.0355496406555176, -6.993526458740234, -86.71730041503906, 0.040158919990062714, 0.04340751841664314, 0.0335768423974514, 0.0, 1.0, 0.0, 0.0, -0.4375, 175, 0, -30, 193, 2, 0, -45, -5, -4, 4300, 4, 1, 0, 0, 26)
49.911844999797175, -98.2686700000173, 215445.40625, -0.8322412371635437, -6.14619255065918, -85.0689468383789, 0.028469908982515335, 0.10855945199728012, 0.18268299102783203, 0.0, 1.0, 0.0, 0.0, -0.4375, 175, 0, -30, 193, 2, 0, -45, -5, -4, 4300, 4, 1, 0, 0, 26)
49.911844999797175, -98.2686700000173, 215445.59375, -0.43127724528312683, -3.832340717315674, -82.2388916015625, 0.06312483549118042, 0.13983619213104248, 0.31040841341018677, 0.0, 1.0, 0.0, 0.0, -0.4375, 175, 0, -30, 193, 2, 0, -45, -5, -4, 4300, 4, 1, 0, 0, 26)
49.911844999797175, -98.2686700000173, 215445.796875, -0.28941234946250916, -3.2235286235809326, -77.14685821533203, -0.12706203758716583, -0.11050405353307724, 0.4371320605278015, 0.0, 1.0, 0.0, 0.0, -0.75, 175, 0, -30, 193, 2, 0, -45, -5, -5, 4300, 4, 1, 0, 0, 26)
49.911844999797175, -98.2686700000173, 215446.0, -1.5442309379577637, -4.636549949645996, -72.43912506103516, -0.15010914206504822, -0.030640706419944763, 0.29080823063850403, 0.0, 1.0, 0.0, 0.0, -0.75, 175, 0, -30, 193, 2, 0, -45, -5, -4, 4300, 4, 1, 0, 0, 26)
49.911844999797175, -98.2686700000173, 215446.203125, -2.3012897968292236, -4.572070598602295, -69.65788269042969, -0.05187927186489105, 0.01569909043610096, 0.13219282031059265, 0.0, 1.0, 0.0, 0.0, -0.75, 175, 0, -30, 193, 2, 0, -45, -5, -4, 4300, 4, 1, 0, 0, 26)
49.911844999797175, -98.2686700000173, 215446.5, -2.7036848068237305, -3.8131933212280273, -69.06417846679688, -0.07091110199689865, 0.05123399198055267, -0.014306965284049511, 0.0, 1.0, 0.0, 0.0, -0.75, 175, 0, -30, 193, 2, 0, -45, -5, -4, 4300, 4, 1, 0, 0, 27)
49.911844999797175, -98.2686700000173, 215446.703125, -3.9961295127868652, -5.0926995277404785, -68.92095184326172, -0.1943492293357849, -0.23905110359191895, 0.04329121857881546, 0.0, 1.0, 0.0, 0.0, -0.75, 175, 0, -30, 193, 2, 0, -45, -5, -4, 4300, 4, 1, 0, 0, 27)
49.911844999797175, -98.2686700000173, 215446.90625, -6.495215892791748, -6.9278388023376465, -67.51985931396484, -0.18451540172100067, -0.05946016311645508, 0.10778936743736267, 0.0, 1.0, 0.0, 0.0, -0.5625, 175, 0, -30, 193, 2, 0, -45, -5, -5, 4300, 4, 1, 0, 0, 27)
49.911844999797175, -98.2686700000173, 215447.09375, -6.811931133270264, -7.220689296722412, -66.17884826660156, 0.050721872597932816, -0.01150557678192854, 0.08054780215024948, 0.0, 1.0, 0.0, 0.0, -0.5625, 175, 0, -30, 193, 2, 0, -45, -5, -4, 4300, 4, 1, 0, 0, 27)
49.911844999797175, -98.2686700000173, 215447.296875, -6.6005167961120605, -7.1651201248168945, -65.88580322265625, 0.047364749014377594, 0.04898185282945633, -0.04417780041694641, 0.0, 1.0, 0.0, 0.0, -0.5625, 175, 0, -30, 193, 2, 0, -45, -5, -5, 4300, 4, 1, 0, 0, 27)
49.911844999797175, -98.2686700000173, 215447.59375, -6.070518970489502, -7.4755706787109375, -67.13896942138672, 0.004960238933563232, -0.03812653198838234, -0.12495170533657074, 0.0, 1.0, 0.0, 0.0, -0.5625, 175, 0, -30, 193, 2, 0, -45, -5, -4, 4300, 4, 1, 0, 0, 27)
49.911844999797175, -98.2686700000173, 215447.796875, -5.607090473175049, -7.399592399597168, -68.82062530517578, 0.11769060045480728, 0.03114081546664238, -0.13736003637313843, 0.0, 1.0, 0.0, 0.0, -0.5, 175, 0, -30, 193, 2, 0, -45, -5, -5, 4300, 4, 1, 0, 0, 26)
49.911844999797175, -98.2686700000173, 215448.0, -4.688089847564697, -6.0811381340026855, -71.09675598144531, 0.05560878664255142, -0.06598817557096481, -0.17462942004203796, 0.0, 1.0, 0.0, 0.0, -0.5, 175, 0, -30, 193, 2, 0, -45, -5, -4, 4300, 4, 1, 0, 0, 25)
49.911844999797175, -98.2686700000173, 215448.203125, -3.999790906906128, -8.07632064819336, -73.0833969116211, 0.10352064669132233, 0.009066006168723106, -0.17949721217155457, 0.0, 1.0, 0.0, 0.0, -0.5, 175, 0, -30, 193, 2, 0, -45, -5, -5, 4300, 4, 1, 0, 0, 25)
49.911844999797175, -98.2686700000173, 215448.40625, -2.5509910583496094, -6.698973655700684, -75.95365905761719, 0.15391162037849426, 0.08668985217809677, -0.2161419689655304, 0.0, 1.0, 0.0, 0.0, -0.5, 175, 0, -30, 193, 2, 0, -45, -5, -4, 4300, 4, 1, 0, 0, 25)
49.911844999797175, -98.2686700000173, 215448.703125, -0.40639132261276245, -6.893442630767822, -78.0979995727539, 0.24335476756095886, -0.05384765937924385, -0.07400822639465332, 0.0, 1.0, 0.0, 0.0, -1.1875, 175, 15, -30, 193, 2, 0, -45, -5, -4, 4300, 4, 1, 0, 0, 25)
49.911844999797175, -98.2686700000173, 215448.90625, 0.4217720329761505, -6.041615962982178, -79.71805572509766, -0.04683038592338562, 0.1803794950246811, -0.16640222072601318, 0.0, 1.0, 0.0, 0.0, -1.1875, 175, 1, -30, 193, 2, 0, -45, -5, -5, 4300, 4, 1, 0, 0, 25)
49.911844999797175, -98.2686700000173, 215449.09375, 1.2981678247451782, -4.068841457366943, -81.77886199951172, 0.07743887603282928, 0.1925641894340515, -0.16260550916194916, 0.0, 1.0, 0.0, 0.0, -1.1875, 175, 1, -30, 193, 2, 0, -45, -5, -4, 4300, 4, 1, 0, 0, 27)
49.911844999797175, -98.2686700000173, 215449.296875, 3.0493979454040527, -0.37936192750930786, -84.52983856201172, 0.2461395114660263, 0.3316906988620758, -0.24489140510559082, 0.0, 1.0, 0.0, 0.0, -1.1875, 175, 1, -30, 193, 2, 0, -46, -5, -4, 4300, 4, 1, 0, 0, 27)
49.911844999797175, -98.2686700000173, 215449.5, 4.340131759643555, 1.9766710996627808, -86.60185241699219, 0.07709953188896179, -0.09425680339336395, -0.062440112233161926, 0.0, 1.0, 0.0, 0.0, -1.1875, 175, 1, -30, 193, 2, 0, -46, -5, -4, 4300, 4, 1, 0, 0, 27)
49.911844999797175, -98.2686700000173, 215449.796875, 3.815781831741333, -1.134905219078064, -85.81537628173828, -0.07866223156452179, -0.2733303904533386, 0.108934685587883, 0.0, 1.0, 0.0, 0.0, -0.625, 175, 0, -30, 193, 2, 0, -45, -5, -4, 4300, 4, 1, 0, 0, 27)
49.911844999797175, -98.2686700000173, 215450.0, 2.556635618209839, -5.683716297149658, -83.86106872558594, -0.13679449260234833, -0.42835041880607605, 0.1472579836845398, 0.0, 1.0, 0.0, 0.0, -0.625, 175, 0, -30, 193, 2, 0, -45, -5, -4, 4300, 4, 1, 0, 0, 27)
49.911844999797175, -98.2686700000173, 215450.203125, 1.5762850046157837, -10.156576156616211, -82.06217956542969, -0.07278931140899658, -0.2843397557735443, 0.117950938642025, 0.0, 1.0, 0.0, 0.0, -0.625, 175, 0, -30, 193, 2, 0, -46, -5, -4, 4300, 4, 1, 0, 0, 27)
49.911844999797175, -98.2686700000173, 215450.40625, 0.5985552668571472, -11.6873140335083, -80.81502532958984, -0.04292794689536095, 0.06761565059423447, 0.044318921864032745, 0.0, 1.0, 0.0, 0.0, -0.625, 175, 0, -30, 193, 2, 0, -45, -5, -5, 4300, 4, 1, 0, 0, 27)
49.911844999797175, -98.2686700000173, 215450.703125, 0.46215352416038513, -9.3378267288208, -80.72188568115234, 0.016780328005552292, 0.12119673192501068, 0.01776754856109619, 0.0, 1.0, 0.0, 0.0, -0.625, 175, 0, -30, 193, 2, 0, -45, -6, -4, 4300, 4, 1, 0, 0, 27)
49.911844999797175, -98.2686700000173, 215450.90625, 0.5547190308570862, -8.928512573242188, -79.7296142578125, -0.05297692492604256, 0.028303034603595734, 0.09763430804014206, 0.0, 1.0, 0.0, 0.0, -0.625, 175, 0, -30, 193, 2, 0, -46, -5, -4, 4300, 4, 1, 0, 0, 27)
49.911844999797175, -98.2686700000173, 215451.09375, 0.9045180678367615, -9.202046394348145, -78.51325225830078, 0.00061838049441576, 0.005875180475413799, 0.08048661798238754, 0.0, 1.0, 0.0, 0.0, -0.625, 175, 0, -30, 193, 2, 0, -45, -5, -4, 4300, 4, 1, 0, 0, 27)
49.911844999797175, -98.2686700000173, 215451.296875, -0.7518007755279541, -8.935924530029297, -77.65319061279297, -0.1302633434534073, -0.07761777192354202, 0.05049527436494827, 0.0, 1.0, 0.0, 0.0, -0.625, 175, 0, -30, 193, 2, 0, -45, -5, -4, 4300, 4, 1, 0, 0, 27)
49.911844999797175, -98.2686700000173, 215451.5, -2.6646206378936768, -11.645444869995117, -76.58341979980469, -0.2876015603542328, -0.12236521393060684, 0.030693121254444122, 0.0, 1.0, 0.0, 0.0, -0.625, 175, 0, -30, 193, 2, 0, -45, -5, -5, 4300, 4, 1, 0, 0, 27)
49.911844999797175, -98.2686700000173, 215451.796875, -4.618751049041748, -12.994290351867676, -75.45938110351562, -0.08261427283287048, 0.02514791116118431, 0.06772077828645706, 0.0, 1.0, 0.0, 0.0, 0.25, 175, 0, -30, 193, 2, 0, -45, -5, -4, 4300, 4, 1, 0, 0, 27)
49.911844999797175, -98.2686700000173, 215452.0, -4.151290416717529, -11.980653762817383, -74.82230377197266, 0.1045295000076294, -0.01835031807422638, 0.09178970009088516, 0.0, 1.0, 0.0, 0.0, 0.25, 175, 0, -30, 193, 2, 0, -45, -5, -4, 4300, 4, 1, 0, 0, 27)
49.911844999797175, -98.2686700000173, 215452.203125, -4.4455718994140625, -11.949901580810547, -74.09625244140625, -0.007145461160689592, 0.10122167319059372, 0.00568524980917573, 0.0, 1.0, 0.0, 0.0, 0.25, 175, 0, -30, 193, 2, 0, -45, -5, -4, 4300, 4, 1, 0, 0, 27)
49.911844999797175, -98.2686700000173, 215452.40625, -3.6042520999908447, -10.363975524902344, -74.45404052734375, -0.0027919895946979523, 0.16768376529216766, -0.07286352664232254, 0.0, 1.0, 0.0, 0.0, 0.25, 175, 0, -30, 193, 2, 0, -45, -5, -4, 4300, 4, 1, 0, 0, 27)
49.911844999797175, -98.2686700000173, 215452.59375, -3.681133985519409, -11.134203910827637, -74.62384796142578, -0.10204584151506424, -0.11384711414575577, 0.026210421696305275, 0.0, 1.0, 0.0, 0.0, 0.25, 175, 0, -30, 193, 2, 0, -45, -5, -4, 4300, 4, 1, 0, 0, 27)
49.911844999797175, -98.2686700000173, 215452.796875, -3.7769980430603027, -10.871395111083984, -73.50601959228516, 0.006747052073478699, 0.2175540179014206, 0.09600566327571869, 0.0, 1.0, 0.0, 0.0, 0.5625, 175, 0, -30, 193, 2, 0, -45, -5, -5, 4300, 4, 1, 0, 0, 27)
49.911844999797175, -98.2686700000173, 215453.09375, -2.797943353652954, -4.813195705413818, -72.94950866699219, 0.14578481018543243, 0.4547280967235565, 0.007499112281948328, 0.0, 1.0, 0.0, 0.0, 0.5625, 175, 0, -30, 193, 2, 0, -45, -6, -4, 4300, 4, 1, 0, 0, 27)
49.911844999797175, -98.2686700000173, 215453.296875, -0.814845860004425, -3.851388931274414, -71.2964859008789, 0.19752271473407745, -0.36421483755111694, 0.30732443928718567, 0.0, 1.0, 0.0, 0.0, 0.5625, 175, 0, -30, 193, 2, 0, -45, -6, -4, 4300, 4, 1, 0, 0, 27)
49.911844999797175, -98.2686700000173, 215453.5, -0.6734798550605774, -9.182079315185547, -67.31436920166016, -0.10719670355319977, -0.1826711893081665, 0.21299594640731812, 0.0, 1.0, 0.0, 0.0, 0.5625, 175, 0, -30, 193, 2, 0, -45, -6, -5, 4300, 4, 1, 0, 0, 27)
49.911844999797175, -98.2686700000173, 215453.703125, -1.846238613128662, -8.652345657348633, -66.13304138183594, -0.05317133665084839, 0.14518898725509644, -0.05645580217242241, 0.0, 1.0, 0.0, 0.0, -1.375, 175, 1, -30, 193, 2, 0, -46, -5, -5, 4300, 4, 1, 0, 0, 27)
49.911844999797175, -98.2686700000173, 215454.0, -3.1366090774536133, -4.605620861053467, -68.34903717041016, -0.06137801334261894, 0.2970178723335266, -0.22542710602283478, 0.0, 1.0, 0.0, 0.0, -1.375, 175, 1, -30, 193, 2, 0, -46, -5, -4, 4300, 4, 1, 0, 0, 27)
49.911844999797175, -98.2686700000173, 215454.203125, -2.277820348739624, -0.11771588772535324, -71.2755355834961, 0.17904698848724365, 0.06515341997146606, -0.1837686002254486, 0.0, 1.0, 0.0, 0.0, -1.375, 175, 1, -30, 193, 2, 0, -46, -5, -4, 4300, 4, 1, 0, 0, 27)
49.911844999797175, -98.2686700000173, 215454.40625, -2.943697929382324, 0.4838718771934509, -73.19471740722656, -0.12935203313827515, 0.13729988038539886, -0.13715532422065735, 0.0, 1.0, 0.0, 0.0, -1.375, 175, 1, -30, 193, 2, 0, -46, -5, -5, 3100, 4, 1, 0, 0, 27)
49.911844999797175, -98.2686700000173, 215454.59375, -3.3841285705566406, -0.611445426940918, -75.03675079345703, -0.08775956928730011, -0.21834157407283783, -0.04138283431529999, 0.0, 1.0, 0.0, 0.0, -1.375, 175, 1, -30, 193, 2, 0, -46, -5, -5, 3100, 4, 1, 0, 0, 27)
49.911844999797175, -98.2686700000173, 215454.90625, -5.348701000213623, -3.982957124710083, -75.58184814453125, -0.04658009111881256, -0.33782151341438293, -0.11887868493795395, 0.0, 1.0, 0.0, 0.0, -0.4375, 175, 1, -30, 193, 2, 0, -46, -5, -5, 3100, 4, 1, 0, 0, 27)
49.911844999797175, -98.2686700000173, 215455.09375, -6.185432434082031, -8.341169357299805, -77.08979797363281, 0.004988199099898338, -0.3506486415863037, -0.021305611357092857, 0.0, 1.0, 0.0, 0.0, -0.4375, 175, 1, -30, 193, 2, 0, -46, -5, -4, 3100, 4, 1, 0, 0, 27)
49.911844999797175, -98.2686700000173, 215455.296875, -5.732694149017334, -11.000968933105469, -77.0569076538086, 0.13148003816604614, -0.01014088187366724, 0.036097392439842224, 0.0, 1.0, 0.0, 0.0, -0.4375, 175, 1, -30, 193, 2, 0, -46, -5, -4, 3100, 4, 1, 0, 0, 27)
49.911844999797175, -98.2686700000173, 215455.5, -4.446850776672363, -10.470563888549805, -76.55165100097656, -0.03521755337715149, 0.037723690271377563, 0.0794491320848465, 0.0, 1.0, 0.0, 0.0, -0.4375, 175, 1, -30, 193, 2, 0, -46, -5, -4, 3100, 4, 1, 0, 0, 27)
49.911844999797175, -98.2686700000173, 215456.0, -4.648776054382324, -9.420955657958984, -75.68167877197266, 0.07032587379217148, 0.0764058381319046, -0.018119921907782555, 0.0, 1.0, 0.0, 0.0, -1.375, 175, 1, -30, 193, 2, 0, -46, -5, -4, 4300, 4, 1, 0, 0, 27)
49.911844999797175, -98.2686700000173, 215456.203125, -4.41622257232666, -9.543472290039062, -76.15137481689453, 0.004402145743370056, -0.06305570900440216, -0.030564863234758377, 0.0, 1.0, 0.0, 0.0, -1.375, 175, 1, 0, 193, 2, 0, -46, -5, -5, 2600, 4, 1, 0, 0, 27)
49.911844999797175, -98.2686700000173, 215456.40625, -4.044580459594727, -10.923141479492188, -76.06648254394531, 0.09043645858764648, -0.09158436208963394, 0.06797994673252106, 0.0, 1.0, 0.0, 0.0, -1.375, 175, 1, 0, 193, 2, 0, -46, -5, -4, 2600, 4, 1, 0, 0, 27)
49.911844999797175, -98.2686700000173, 215456.59375, -3.4667747020721436, -10.259156227111816, -75.59598541259766, -0.017727207392454147, -0.03742457926273346, -0.02535749413073063, 0.0, 1.0, 0.0, 0.0, -1.375, 175, 1, 0, 193, 2, 0, -46, -5, -4, 2600, 4, 1, 0, 0, 27)
49.911844999797175, -98.2686700000173, 215456.796875, -4.111076831817627, -11.23687744140625, -75.5369644165039, -0.0549195259809494, -0.06869130581617355, 0.06011517718434334, 0.0, 1.0, 0.0, 0.0, 0.1875, 175, 1, 0, 193, 2, 0, -46, -5, -4, 2600, 4, 1, 0, 0, 27)
49.911844999797175, -98.2686700000173, 215457.0, -3.729092597961426, -10.286079406738281, -74.95015716552734, 0.03172280266880989, 0.2461443692445755, 0.02136250026524067, 0.0, 1.0, 0.0, 0.0, 0.1875, 175, 1, 0, 193, 2, 0, -46, -5, -4, 2600, 4, 1, 0, 0, 27)
49.911844999797175, -98.2686700000173, 215457.296875, -2.8230631351470947, -9.018152236938477, -75.05415344238281, 0.10173944383859634, -0.06028308719396591, 0.031513653695583344, 0.0, 1.0, 0.0, 0.0, 0.1875, 175, 1, 0, 193, 2, 0, -46, -5, -5, 2600, 4, 1, 0, 0, 27)
49.911844999797175, -98.2686700000173, 215457.5, -2.5801148414611816, -9.082984924316406, -75.08934020996094, 0.027039965614676476, 0.04960476979613304, -0.03562348335981369, 0.0, 1.0, 0.0, 0.0, 0.1875, 175, 1, 0, 193, 2, 0, -46, -5, -4, 2600, 4, 1, 0, 0, 27)
49.911844999797175, -98.2686700000173, 215457.703125, -2.594245672225952, -5.954845428466797, -75.979736328125, 0.042810212820768356, 0.2116660177707672, -0.09084808826446533, 0.0, 1.0, 0.0, 0.0, -1.0, 175, 1, 0, 193, 2, 0, -46, -5, -4, 4300, 4, 1, 0, 0, 27)
49.911844999797175, -98.2686700000173, 215457.90625, -2.0667922496795654, -4.4971842765808105, -76.8436508178711, -0.019702212885022163, 0.2415919005870819, -0.07369287312030792, 0.0, 1.0, 0.0, 0.0, -1.0, 175, 1, 0, 193, 2, 0, -46, -5, -4, 4300, 4, 1, 0, 0, 27)
49.911844999797175, -98.2686700000173, 215458.09375, -1.2222371101379395, -0.9645796418190002, -78.26846313476562, 0.17276573181152344, 0.01202644594013691, -0.06576696038246155, 0.0, 1.0, 0.0, 0.0, -1.0, 175, 1, 0, 193, 2, 0, -46, -5, -5, 4300, 4, 1, 0, 0, 27)
49.911844999797175, -98.2686700000173, 215458.40625, -0.9423871636390686, -3.94339919090271, -77.71463012695312, -0.01898721233010292, -0.36976224184036255, 0.09020044654607773, 0.0, 1.0, 0.0, 0.0, -1.0, 175, 1, 0, 193, 2, 0, -46, -5, -4, 4300, 4, 1, 0, 0, 27)
49.911844999797175, -98.2686700000173, 215458.59375, -0.1787501722574234, -8.021350860595703, -76.4992446899414, 0.0664304718375206, -0.14440393447875977, 0.09212396293878555, 0.0, 1.0, 0.0, 0.0, -0.4375, 175, 0, 0, 193, 2, 0, -46, -5, -5, 2500, 4, 1, 0, 0, 27)
49.911844999797175, -98.2686700000173, 215458.796875, 0.3357377052307129, -7.1252570152282715, -76.20844268798828, 0.0007123425602912903, 0.18564020097255707, -0.021798770874738693, 0.0, 1.0, 0.0, 0.0, -0.4375, 175, 0, 0, 193, 2, 0, -46, -5, -4, 2500, 4, 1, 0, 0, 27)
49.911844999797175, -98.2686700000173, 215459.0, 0.07701381295919418, -6.149338722229004, -76.30550384521484, -0.028330817818641663, -0.05194499343633652, 0.008060052059590816, 0.0, 1.0, 0.0, 0.0, -0.4375, 175, 0, 0, 193, 2, 0, -46, -5, -4, 2500, 4, 1, 0, 0, 27)
49.911844999797175, -98.2686700000173, 215459.296875, -0.4724801182746887, -3.367887020111084, -76.666748046875, 0.04191625863313675, 0.2677310109138489, -0.03060823120176792, 0.0, 1.0, 0.0, 0.0, -0.4375, 175, 0, 0, 193, 2, 0, -46, -5, -4, 2500, 4, 1, 0, 0, 27)
49.911844999797175, -98.2686700000173, 215459.703125, -1.1256656646728516, -0.36535507440567017, -74.00379943847656, -0.0830652043223381, 0.05681058019399643, 0.20806200802326202, 0.0, 1.0, 0.0, 0.0, -0.625, 175, 0, 0, 193, 2, 0, -46, -5, -4, 2500, 4, 1, 0, 0, 27)
49.911844999797175, -98.2686700000173, 215459.90625, -1.0740535259246826, 1.8327714204788208, -71.77543640136719, 0.06895569711923599, 0.30671828985214233, 0.08147898316383362, 0.0, 1.0, 0.0, 0.0, -0.625, 175, 0, 0, 193, 2, 0, -46, -5, -4, 4300, 4, 1, 0, 0, 27)
49.911844999797175, -98.2686700000173, 215500.09375, -0.07314269989728928, 2.9987683296203613, -71.44853210449219, 0.03637579083442688, -0.12562334537506104, 0.010188666172325611, 0.0, 1.0, 0.0, 0.0, -0.625, 175, 0, 0, 193, 2, 0, -46, -5, -5, 4300, 4, 1, 0, 0, 27)
49.911844999797175, -98.2686700000173, 215500.40625, 0.5989188551902771, 1.6126058101654053, -71.87749481201172, 0.0360172763466835, 0.1477072834968567, -0.13437962532043457, 0.0, 1.0, 0.0, 0.0, -0.625, 175, 0, 0, 193, 2, 0, -46, -5, -4, 4300, 4, 1, 0, 0, 27)
49.911844999797175, -98.2686700000173, 215500.59375, 1.7010304927825928, 2.5457558631896973, -73.34773254394531, 0.13167138397693634, -0.20497378706932068, -0.03756070137023926, 0.0, 1.0, 0.0, 0.0, -1.375, 175, 0, 0, 193, 2, 0, -46, -5, -4, 4300, 4, 1, 0, 0, 27)
49.911844999797175, -98.2686700000173, 215500.796875, 0.8606849312782288, -1.7426447868347168, -72.44213104248047, -0.15625442564487457, -0.30817633867263794, 0.1155569925904274, 0.0, 1.0, 0.0, 0.0, -1.375, 175, 0, 0, 193, 2, 0, -46, -5, -4, 4300, 4, 1, 0, 0, 27)
49.911844999797175, -98.2686700000173, 215501.0, 0.44612929224967957, -3.7209970951080322, -71.28871154785156, 0.04571980610489845, -0.195995032787323, 0.1234431192278862, 0.0, 1.0, 0.0, 0.0, -1.375, 175, 0, 0, 193, 2, 0, -46, -5, -4, 4300, 4, 1, 0, 0, 27)
49.911844999797175, -98.2686700000173, 215501.203125, -0.24301990866661072, -4.341200351715088, -70.28314971923828, -0.01622961275279522, -0.0708007961511612, 0.010866829194128513, 0.0, 1.0, 0.0, 0.0, -1.375, 175, 0, 0, 193, 2, 0, -46, -5, -4, 4300, 4, 1, 0, 0, 27)
49.911844999797175, -98.2686700000173, 215501.5, -0.6513510942459106, -6.709061145782471, -70.09391784667969, -0.072208933532238, -0.11047063767910004, -0.02282838523387909, 0.0, 1.0, 0.0, 0.0, -1.375, 175, 0, 0, 193, 2, 0, -46, -5, -4, 4300, 4, 1, 0, 0, 27)
