lat,lon,sys_time,time,pitch,roll,yaw,pitch_rate,roll_rate,yaw_rate,airspeed,altitude,ground_speed,heading,roll_rate_setpoint,roll_setpoint,pitch_rate_setpoint,pitch_setpoint,throttle_setpoint,roll_kd,roll_kp,pitch_kd,pitch_kp,yaw_kd,yaw_kp,last_command_sent0,last_command_sent1,last_command_sent2,last_command_sent3,battery_level1,battery_level2,ch1in,ch2in,ch3in,ch4in,ch5in,ch6in,ch7in,ch8in,ch1out,ch2out,ch3out,ch4out,ch5out,ch6out,ch7out,ch8out,camera_status,yaw_rate_setpoint,heading_setpoint,altitude_setpoint,flap_setpoint,wireless_connection,autopilot_active,gps_status,path_checksum,waypoint_count,waypoint_index,path_following,roll_ki,pitch_ki,yaw_ki,heading_kd,heading_kp,heading_ki,altitude_kd,altitude_kp,altitude_ki,throttle_kd,throttle_kp,throttle_ki,flap_kd,flap_kp,flap_ki,path_gain,orbit_gain,autonomousLevel,startup_error_codes,startupSettings,RSSI
, 15.0, 2.0, 15.0, 2.0, 20.149999618530273, 5.0, 0, 1, 2, 3, 0, 100, -322, -261, -1106, 19, -392, -3072, -3072, -918, 0, 0, -1024, 0, 0, 0, 0, 0, 0, 0, 0, 0, -1024, 0, 0, 0, 74, 0, 0, 143, , -100
, 15.0, 2.0, 15.0, 2.0, 20.149999618530273, 5.0, 0, 1, 2, 3, 0, 100, -322, -261, -1106, 19, -392, -3072, -3072, -918, 0, 0, -1024, 0, 0, 0, 0, 0, 0, 0, 0, 0, -1024, 0, 0, 0, 74, 0, 0, 143, 0.0, 0.0, 0.0, 0.0, 2.0, 0.0, 0.0, 1.0, 0.0, 0.0, 1.0, 0.0, 0.0, 1.0, 0.0, 0.0, 0.0, 0, 768, 1, 59
0.0, 0.0, 63126, 0.0, -4.389368057250977, -0.23906701803207397, -116.84986114501953, -0.001683398731984198, -0.013666696846485138, -0.003924537915736437, 0.0, 0.0, 0.0, 0, 0, 0, 0, 0, -1024, 15.0, 2.0, 15.0, 2.0, 20.149999618530273, 5.0, 0, 1, 2, 3, 0, 100, -322, -261, -1106, 19, -392, -3072, -3072, -918, 0, 0, -1024, 0, 0, 0, 0, 0, 0, 0, 0, 0, -1024, 0, 0, 0, 74, 0, 0, 143, 0.0, 0.0, 0.0, 0.0, 2.0, 0.0, 0.0, 1.0, 0.0, 0.0, 1.0, 0.0, 0.0, 1.0, 0.0, 0.0, 0.0, 0, 768, 1, 59
0.0, 0.0, 63126, 0.0, -4.389368057250977, -0.23906701803207397, -116.84986114501953, -0.001683398731984198, -0.013666696846485138, -0.003924537915736437, 0.0, 0.0, 0.0, 0, 0, 0, 0, 0, -1024, 15.0, 2.0, 15.0, 2.0, 20.149999618530273, 5.0, 0, 1, 2, 3, 0, 100, -322, -258, -1103, 22, -392, -3072, -3072, -912, 0, 0, -1024, 0, 0, 0, 0, 0, 0, 0, 0, 0, -1024, 0, 0, 0, 79, 0, 0, 52, 0.0, 0.0, 0.0, 0.0, 2.0, 0.0, 0.0, 1.0, 0.0, 0.0, 1.0, 0.0, 0.0, 1.0, 0.0, 0.0, 0.0, 0, 768, 1, 67
0.0, 0.0, 63126, 0.0, -4.389368057250977, -0.23906701803207397, -116.84986114501953, -0.001683398731984198, -0.013666696846485138, -0.003924537915736437, 0.0, 0.0, 0.0, 0, 0, 0, 0, 0, -1024, 15.0, 2.0, 15.0, 2.0, 20.149999618530273, 5.0, 0, 1, 2, 3, 0, 100, -322, -258, -1103, 22, -392, -3072, -3072, -912, 0, 0, -1024, 0, 0, 0, 0, 0, 0, 0, 0, 0, -1024, 0, 0, 0, 79, 0, 0, 52, 0.0, 0.0, 0.0, 0.0, 2.0, 0.0, 0.0, 1.0, 0.0, 0.0, 1.0, 0.0, 0.0, 1.0, 0.0, 0.0, 0.0, 0, 768, 1, 67
0.0, 0.0, 64397, 0.0, -4.394675254821777, -0.263992577791214, -116.86567687988281, 0.0037468569353222847, 0.008150692097842693, 0.009406971745193005, 0.0, 0.0, 0.0, 0, 0, 0, 0, 0, -1024, 15.0, 2.0, 15.0, 2.0, 20.149999618530273, 5.0, 0, 1, 2, 3, 0, 100, -322, -258, -1103, 22, -392, -3072, -3072, -912, 0, 0, -1024, 0, 0, 0, 0, 0, 0, 0, 0, 0, -1024, 0, 0, 0, 79, 0, 0, 52, 0.0, 0.0, 0.0, 0.0, 2.0, 0.0, 0.0, 1.0, 0.0, 0.0, 1.0, 0.0, 0.0, 1.0, 0.0, 0.0, 0.0, 0, 768, 1, 67
0.0, 0.0, 64397, 0.0, -4.394675254821777, -0.263992577791214, -116.86567687988281, 0.0037468569353222847, 0.008150692097842693, 0.009406971745193005, 0.0, 0.0, 0.0, 0, 0, 0, 0, 0, -1024, 15.0, 2.0, 15.0, 2.0, 20.149999618530273, 5.0, 0, 1, 2, 3, 0, 100, -322, -261, -1106, 22, -2960, -3072, -3072, -909, 0, 0, -1024, 0, 0, 0, 0, 0, 0, 0, 0, 0, -1024, 0, 0, 0, 74, 0, 0, 143, 0.0, 0.0, 0.0, 0.0, 2.0, 0.0, 0.0, 1.0, 0.0, 0.0, 1.0, 0.0, 0.0, 1.0, 0.0, 0.0, 0.0, 0, 768, 1, 67
0.0, 0.0, 64397, 0.0, -4.394675254821777, -0.263992577791214, -116.86567687988281, 0.0037468569353222847, 0.008150692097842693, 0.009406971745193005, 0.0, 0.0, 0.0, 0, 0, 0, 0, 0, -1024, 15.0, 2.0, 15.0, 2.0, 20.149999618530273, 5.0, 0, 1, 2, 3, 0, 100, -322, -261, -1106, 22, -2960, -3072, -3072, -909, 0, 0, -1024, 0, 0, 0, 0, 0, 0, 0, 0, 0, -1024, 0, 0, 0, 74, 0, 0, 143, 0.0, 0.0, 0.0, 0.0, 2.0, 0.0, 0.0, 1.0, 0.0, 0.0, 1.0, 0.0, 0.0, 1.0, 0.0, 0.0, 0.0, 0, 768, 1, 67
0.0, 0.0, 65667, 0.0, -4.4161376953125, -0.29568955302238464, -116.88729095458984, -0.0024467066396027803, -0.002109142951667309, -0.0019180136732757092, 0.0, 0.0, 0.0, 0, 0, 0, 0, 0, -1024, 15.0, 2.0, 15.0, 2.0, 20.149999618530273, 5.0, 0, 1, 2, 3, 0, 100, -322, -261, -1106, 22, -2960, -3072, -3072, -909, 0, 0, -1024, 0, 0, 0, 0, 0, 0, 0, 0, 0, -1024, 0, 0, 0, 74, 0, 0, 143, 0.0, 0.0, 0.0, 0.0, 2.0, 0.0, 0.0, 1.0, 0.0, 0.0, 1.0, 0.0, 0.0, 1.0, 0.0, 0.0, 0.0, 0, 768, 1, 67
0.0, 0.0, 65667, 0.0, -4.4161376953125, -0.29568955302238464, -116.88729095458984, -0.0024467066396027803, -0.002109142951667309, -0.0019180136732757092, 0.0, 0.0, 0.0, 0, 0, 0, 0, 0, -1024, 15.0, 2.0, 15.0, 2.0, 20.149999618530273, 5.0, 0, 1, 2, 3, 0, 100, -322, -261, -1103, 22, -395, -3072, -3072, -912, 0, 0, -1024, 0, 0, 0, 0, 0, 0, 0, 0, 0, -1024, 0, 0, 0, 79, 0, 0, 52, 0.0, 0.0, 0.0, 0.0, 2.0, 0.0, 0.0, 1.0, 0.0, 0.0, 1.0, 0.0, 0.0, 1.0, 0.0, 0.0, 0.0, 0, 768, 1, 67
0.0, 0.0, 65667, 0.0, -4.4161376953125, -0.29568955302238464, -116.88729095458984, -0.0024467066396027803, -0.002109142951667309, -0.0019180136732757092, 0.0, 0.0, 0.0, 0, 0, 0, 0, 0, -1024, 15.0, 2.0, 15.0, 2.0, 20.149999618530273, 5.0, 0, 1, 2, 3, 0, 100, -322, -261, -1103, 22, -395, -3072, -3072, -912, 0, 0, -1024, 0, 0, 0, 0, 0, 0, 0, 0, 0, -1024, 0, 0, 0, 79, 0, 0, 52, 0.0, 0.0, 0.0, 0.0, 2.0, 0.0, 0.0, 1.0, 0.0, 0.0, 1.0, 0.0, 0.0, 1.0, 0.0, 0.0, 0.0, 0, 768, 1, 67
0.0, 0.0, 66938, 0.0, -4.4147210121154785, -0.2724964916706085, -116.88880157470703, -0.00010597967775538564, 0.002362386789172888, 0.0012218225747346878, 0.0, 0.0, 0.0, 0, 0, 0, 0, 0, -1024, 15.0, 2.0, 15.0, 2.0, 20.149999618530273, 5.0, 0, 1, 2, 3, 0, 100, -322, -261, -1103, 22, -395, -3072, -3072, -912, 0, 0, -1024, 0, 0, 0, 0, 0, 0, 0, 0, 0, -1024, 0, 0, 0, 79, 0, 0, 52, 0.0, 0.0, 0.0, 0.0, 2.0, 0.0, 0.0, 1.0, 0.0, 0.0, 1.0, 0.0, 0.0, 1.0, 0.0, 0.0, 0.0, 0, 768, 1, 67
0.0, 0.0, 66938, 0.0, -4.4147210121154785, -0.2724964916706085, -116.88880157470703, -0.00010597967775538564, 0.002362386789172888, 0.0012218225747346878, 0.0, 0.0, 0.0, 0, 0, 0, 0, 0, -1024, 15.0, 2.0, 15.0, 2.0, 20.149999618530273, 5.0, 0, 1, 2, 3, 0, 100, -322, -264, -1106, -2545, -392, -3072, -3072, -912, 0, 0, -1024, 0, 0, 0, 0, 0, 0, 0, 0, 0, -1024, 0, 0, 0, 74, 0, 0, 143, 0.0, 0.0, 0.0, 0.0, 2.0, 0.0, 0.0, 1.0, 0.0, 0.0, 1.0, 0.0, 0.0, 1.0, 0.0, 0.0, 0.0, 0, 768, 1, 67
0.0, 0.0, 66938, 0.0, -4.4147210121154785, -0.2724964916706085, -116.88880157470703, -0.00010597967775538564, 0.002362386789172888, 0.0012218225747346878, 0.0, 0.0, 0.0, 0, 0, 0, 0, 0, -1024, 15.0, 2.0, 15.0, 2.0, 20.149999618530273, 5.0, 0, 1, 2, 3, 0, 100, -322, -264, -1106, -2545, -392, -3072, -3072, -912, 0, 0, -1024, 0, 0, 0, 0, 0, 0, 0, 0, 0, -1024, 0, 0, 0, 74, 0, 0, 143, 0.0, 0.0, 0.0, 0.0, 2.0, 0.0, 0.0, 1.0, 0.0, 0.0, 1.0, 0.0, 0.0, 1.0, 0.0, 0.0, 0.0, 0, 768, 1, 68
0.0, 0.0, 68209, 0.0, -4.422258377075195, -0.24670548737049103, -116.8606948852539, 0.002232052618637681, 0.0022260737605392933, 0.001967149553820491, 0.0, 0.0, 0.0, 0, 0, 0, 0, 0, -1024, 15.0, 2.0, 15.0, 2.0, 20.149999618530273, 5.0, 0, 1, 2, 3, 0, 100, -322, -264, -1106, -2545, -392, -3072, -3072, -912, 0, 0, -1024, 0, 0, 0, 0, 0, 0, 0, 0, 0, -1024, 0, 0, 0, 74, 0, 0, 143, 0.0, 0.0, 0.0, 0.0, 2.0, 0.0, 0.0, 1.0, 0.0, 0.0, 1.0, 0.0, 0.0, 1.0, 0.0, 0.0, 0.0, 0, 768, 1, 68
0.0, 0.0, 68209, 0.0, -4.422258377075195, -0.24670548737049103, -116.8606948852539, 0.002232052618637681, 0.0022260737605392933, 0.001967149553820491, 0.0, 0.0, 0.0, 0, 0, 0, 0, 0, -1024, 15.0, 2.0, 15.0, 2.0, 20.149999618530273, 5.0, 0, 1, 2, 3, 0, 100, -322, -2826, -1103, 25, -398, -3072, -3072, -912, 0, 0, -1024, 0, 0, 0, 0, 0, 0, 0, 0, 0, -1024, 0, 0, 0, 79, 0, 0, 52, 0.0, 0.0, 0.0, 0.0, 2.0, 0.0, 0.0, 1.0, 0.0, 0.0, 1.0, 0.0, 0.0, 1.0, 0.0, 0.0, 0.0, 0, 768, 1, 68
0.0, 0.0, 68209, 0.0, -4.422258377075195, -0.24670548737049103, -116.8606948852539, 0.002232052618637681, 0.0022260737605392933, 0.001967149553820491, 0.0, 0.0, 0.0, 0, 0, 0, 0, 0, -1024, 15.0, 2.0, 15.0, 2.0, 20.149999618530273, 5.0, 0, 1, 2, 3, 0, 100, -322, -2826, -1103, 25, -398, -3072, -3072, -912, 0, 0, -1024, 0, 0, 0, 0, 0, 0, 0, 0, 0, -1024, 0, 0, 0, 79, 0, 0, 52, 0.0, 0.0, 0.0, 0.0, 2.0, 0.0, 0.0, 1.0, 0.0, 0.0, 1.0, 0.0, 0.0, 1.0, 0.0, 0.0, 0.0, 0, 768, 1, 68
0.0, 0.0, 69479, 0.0, -4.420099258422852, -0.2728208601474762, -116.86994171142578, 7.263594307005405e-05, 0.0006127404049038887, 0.002215814543887973, 0.0, 0.0, 0.0, 0, 0, 0, 0, 0, -1024, 15.0, 2.0, 15.0, 2.0, 20.149999618530273, 5.0, 0, 1, 2, 3, 0, 100, -322, -2826, -1103, 25, -398, -3072, -3072, -912, 0, 0, -1024, 0, 0, 0, 0, 0, 0, 0, 0, 0, -1024, 0, 0, 0, 79, 0, 0, 52, 0.0, 0.0, 0.0, 0.0, 2.0, 0.0, 0.0, 1.0, 0.0, 0.0, 1.0, 0.0, 0.0, 1.0, 0.0, 0.0, 0.0, 0, 768, 1, 68
0.0, 0.0, 69479, 0.0, -4.420099258422852, -0.2728208601474762, -116.86994171142578, 7.263594307005405e-05, 0.0006127404049038887, 0.002215814543887973, 0.0, 0.0, 0.0, 0, 0, 0, 0, 0, -1024, 15.0, 2.0, 15.0, 2.0, 20.149999618530273, 5.0, 0, 1, 2, 3, 0, 100, -322, -261, -1106, 22, -395, -3072, -3072, -912, 0, 0, -1024, 0, 0, 0, 0, 0, 0, 0, 0, 0, -1024, 0, 0, 0, 74, 0, 0, 143, 0.0, 0.0, 0.0, 0.0, 2.0, 0.0, 0.0, 1.0, 0.0, 0.0, 1.0, 0.0, 0.0, 1.0, 0.0, 0.0, 0.0, 0, 768, 1, 68
0.0, 0.0, 69479, 0.0, -4.420099258422852, -0.2728208601474762, -116.86994171142578, 7.263594307005405e-05, 0.0006127404049038887, 0.002215814543887973, 0.0, 0.0, 0.0, 0, 0, 0, 0, 0, -1024, 15.0, 2.0, 15.0, 2.0, 20.149999618530273, 5.0, 0, 1, 2, 3, 0, 100, -322, -261, -1106, 22, -395, -3072, -3072, -912, 0, 0, -1024, 0, 0, 0, 0, 0, 0, 0, 0, 0, -1024, 0, 0, 0, 74, 0, 0, 143, 0.0, 0.0, 0.0, 0.0, 2.0, 0.0, 0.0, 1.0, 0.0, 0.0, 1.0, 0.0, 0.0, 1.0, 0.0, 0.0, 0.0, 0, 768, 1, 70
0.0, 0.0, 70750, 0.0, -4.401692867279053, -0.22386394441127777, -116.85174560546875, 0.0011997050605714321, 0.002312163822352886, 0.001124001108109951, 0.0, 0.0, 0.0, 0, 0, 0, 0, 0, -1024, 15.0, 2.0, 15.0, 2.0, 20.149999618530273, 5.0, 0, 1, 2, 3, 0, 100, -322, -261, -1106, 22, -395, -3072, -3072, -912, 0, 0, -1024, 0, 0, 0, 0, 0, 0, 0, 0, 0, -1024, 0, 0, 0, 74, 0, 0, 143, 0.0, 0.0, 0.0, 0.0, 2.0, 0.0, 0.0, 1.0, 0.0, 0.0, 1.0, 0.0, 0.0, 1.0, 0.0, 0.0, 0.0, 0, 768, 1, 70
0.0, 0.0, 70750, 0.0, -4.401692867279053, -0.22386394441127777, -116.85174560546875, 0.0011997050605714321, 0.002312163822352886, 0.001124001108109951, 0.0, 0.0, 0.0, 0, 0, 0, 0, 0, -1024, 15.0, 2.0, 15.0, 2.0, 20.149999618530273, 5.0, 0, 1, 2, 3, 0, 100, -325, -261, -1106, 22, -392, -3072, -3072, -912, 0, 0, -1024, 0, 0, 0, 0, 0, 0, 0, 0, 0, -1024, 0, 0, 0, 79, 0, 0, 52, 0.0, 0.0, 0.0, 0.0, 2.0, 0.0, 0.0, 1.0, 0.0, 0.0, 1.0, 0.0, 0.0, 1.0, 0.0, 0.0, 0.0, 0, 768, 1, 71
0.0, 0.0, 70750, 0.0, -4.401692867279053, -0.22386394441127777, -116.85174560546875, 0.0011997050605714321, 0.002312163822352886, 0.001124001108109951, 0.0, 0.0, 0.0, 0, 0, 0, 0, 0, -1024, 15.0, 2.0, 15.0, 2.0, 20.149999618530273, 5.0, 0, 1, 2, 3, 0, 100, -325, -261, -1106, 22, -392, -3072, -3072, -912, 0, 0, -1024, 0, 0, 0, 0, 0, 0, 0, 0, 0, -1024, 0, 0, 0, 79, 0, 0, 52, 0.0, 0.0, 0.0, 0.0, 2.0, 0.0, 0.0, 1.0, 0.0, 0.0, 1.0, 0.0, 0.0, 1.0, 0.0, 0.0, 0.0, 0, 768, 1, 71
0.0, 0.0, 72021, 0.0, -4.414113521575928, -0.25115635991096497, -116.85906982421875, -0.0005121135036461055, -0.00144119281321764, -0.0008562784641981125, 0.0, 0.0, 0.0, 0, 0, 0, 0, 0, -1024, 15.0, 2.0, 15.0, 2.0, 20.149999618530273, 5.0, 0, 1, 2, 3, 0, 100, -325, -261, -1106, 22, -392, -3072, -3072, -912, 0, 0, -1024, 0, 0, 0, 0, 0, 0, 0, 0, 0, -1024, 0, 0, 0, 79, 0, 0, 52, 0.0, 0.0, 0.0, 0.0, 2.0, 0.0, 0.0, 1.0, 0.0, 0.0, 1.0, 0.0, 0.0, 1.0, 0.0, 0.0, 0.0, 0, 768, 1, 72
0.0, 0.0, 72021, 0.0, -4.414113521575928, -0.25115635991096497, -116.85906982421875, -0.0005121135036461055, -0.00144119281321764, -0.0008562784641981125, 0.0, 0.0, 0.0, 0, 0, 0, 0, 0, -1024, 15.0, 2.0, 15.0, 2.0, 20.149999618530273, 5.0, 0, 1, 2, 3, 0, 100, -322, -258, -1103, 19, -392, -3072, -3072, -912, 0, 0, -1024, 0, 0, 0, 0, 0, 0, 0, 0, 0, -1024, 0, 0, 0, 74, 0, 0, 143, 0.0, 0.0, 0.0, 0.0, 2.0, 0.0, 0.0, 1.0, 0.0, 0.0, 1.0, 0.0, 0.0, 1.0, 0.0, 0.0, 0.0, 0, 768, 1, 72
0.0, 0.0, 72021, 0.0, -4.414113521575928, -0.25115635991096497, -116.85906982421875, -0.0005121135036461055, -0.00144119281321764, -0.0008562784641981125, 0.0, 0.0, 0.0, 0, 0, 0, 0, 0, -1024, 15.0, 2.0, 15.0, 2.0, 20.149999618530273, 5.0, 0, 1, 2, 3, 0, 100, -322, -258, -1103, 19, -392, -3072, -3072, -912, 0, 0, -1024, 0, 0, 0, 0, 0, 0, 0, 0, 0, -1024, 0, 0, 0, 74, 0, 0, 143, 0.0, 0.0, 0.0, 0.0, 2.0, 0.0, 0.0, 1.0, 0.0, 0.0, 1.0, 0.0, 0.0, 1.0, 0.0, 0.0, 0.0, 0, 768, 1, 67
0.0, 0.0, 73291, 0.0, -4.396690845489502, -0.21629276871681213, -116.8455810546875, -0.002643727697432041, -0.009532766416668892, -0.003632125910371542, 0.0, 0.0, 0.0, 0, 0, 0, 0, 0, -1024, 15.0, 2.0, 15.0, 2.0, 20.149999618530273, 5.0, 0, 1, 2, 3, 0, 100, -322, -258, -1103, 19, -392, -3072, -3072, -912, 0, 0, -1024, 0, 0, 0, 0, 0, 0, 0, 0, 0, -1024, 0, 0, 0, 74, 0, 0, 143, 0.0, 0.0, 0.0, 0.0, 2.0, 0.0, 0.0, 1.0, 0.0, 0.0, 1.0, 0.0, 0.0, 1.0, 0.0, 0.0, 0.0, 0, 768, 1, 67
0.0, 0.0, 73291, 0.0, -4.396690845489502, -0.21629276871681213, -116.8455810546875, -0.002643727697432041, -0.009532766416668892, -0.003632125910371542, 0.0, 0.0, 0.0, 0, 0, 0, 0, 0, -1024, 15.0, 2.0, 15.0, 2.0, 20.149999618530273, 5.0, 0, 1, 2, 3, 0, 100, -322, -258, -1103, 25, -392, -3072, -3072, -912, 0, 0, -1024, 0, 0, 0, 0, 0, 0, 0, 0, 0, -1024, 0, 0, 0, 79, 0, 0, 52, 0.0, 0.0, 0.0, 0.0, 2.0, 0.0, 0.0, 1.0, 0.0, 0.0, 1.0, 0.0, 0.0, 1.0, 0.0, 0.0, 0.0, 0, 768, 1, 73
0.0, 0.0, 73291, 0.0, -4.396690845489502, -0.21629276871681213, -116.8455810546875, -0.002643727697432041, -0.009532766416668892, -0.003632125910371542, 0.0, 0.0, 0.0, 0, 0, 0, 0, 0, -1024, 15.0, 2.0, 15.0, 2.0, 20.149999618530273, 5.0, 0, 1, 2, 3, 0, 100, -322, -258, -1103, 25, -392, -3072, -3072, -912, 0, 0, -1024, 0, 0, 0, 0, 0, 0, 0, 0, 0, -1024, 0, 0, 0, 79, 0, 0, 52, 0.0, 0.0, 0.0, 0.0, 2.0, 0.0, 0.0, 1.0, 0.0, 0.0, 1.0, 0.0, 0.0, 1.0, 0.0, 0.0, 0.0, 0, 768, 1, 73
0.0, 0.0, 74562, 0.0, -4.407327175140381, -0.24623624980449677, -116.85173034667969, -0.0029533475171774626, -0.003522964194417, -0.0007627755403518677, 0.0, 0.0, 0.0, 0, 0, 0, 0, 0, -1024, 15.0, 2.0, 15.0, 2.0, 20.149999618530273, 5.0, 0, 1, 2, 3, 0, 100, -322, -258, -1103, 25, -392, -3072, -3072, -912, 0, 0, -1024, 0, 0, 0, 0, 0, 0, 0, 0, 0, -1024, 0, 0, 0, 79, 0, 0, 52, 0.0, 0.0, 0.0, 0.0, 2.0, 0.0, 0.0, 1.0, 0.0, 0.0, 1.0, 0.0, 0.0, 1.0, 0.0, 0.0, 0.0, 0, 768, 1, 68
0.0, 0.0, 74562, 0.0, -4.407327175140381, -0.24623624980449677, -116.85173034667969, -0.0029533475171774626, -0.003522964194417, -0.0007627755403518677, 0.0, 0.0, 0.0, 0, 0, 0, 0, 0, -1024, 15.0, 2.0, 15.0, 2.0, 20.149999618530273, 5.0, 0, 1, 2, 3, 0, 100, -322, -258, -1103, 22, -2963, -3072, -3072, -912, 0, 0, -1024, 0, 0, 0, 0, 0, 0, 0, 0, 0, -1024, 0, 0, 0, 74, 0, 0, 143, 0.0, 0.0, 0.0, 0.0, 2.0, 0.0, 0.0, 1.0, 0.0, 0.0, 1.0, 0.0, 0.0, 1.0, 0.0, 0.0, 0.0, 0, 768, 1, 68
0.0, 0.0, 74562, 0.0, -4.407327175140381, -0.24623624980449677, -116.85173034667969, -0.0029533475171774626, -0.003522964194417, -0.0007627755403518677, 0.0, 0.0, 0.0, 0, 0, 0, 0, 0, -1024, 15.0, 2.0, 15.0, 2.0, 20.149999618530273, 5.0, 0, 1, 2, 3, 0, 100, -322, -258, -1103, 22, -2963, -3072, -3072, -912, 0, 0, -1024, 0, 0, 0, 0, 0, 0, 0, 0, 0, -1024, 0, 0, 0, 74, 0, 0, 143, 0.0, 0.0, 0.0, 0.0, 2.0, 0.0, 0.0, 1.0, 0.0, 0.0, 1.0, 0.0, 0.0, 1.0, 0.0, 0.0, 0.0, 0, 768, 1, 64
0.0, 0.0, 75833, 0.0, -4.412522315979004, -0.2621597945690155, -116.85375213623047, 0.0012264163233339787, 0.0015305988490581512, 0.0017619677819311619, 0.0, 0.0, 0.0, 0, 0, 0, 0, 0, -1024, 15.0, 2.0, 15.0, 2.0, 20.149999618530273, 5.0, 0, 1, 2, 3, 0, 100, -322, -258, -1103, 22, -2963, -3072, -3072, -912, 0, 0, -1024, 0, 0, 0, 0, 0, 0, 0, 0, 0, -1024, 0, 0, 0, 74, 0, 0, 143, 0.0, 0.0, 0.0, 0.0, 2.0, 0.0, 0.0, 1.0, 0.0, 0.0, 1.0, 0.0, 0.0, 1.0, 0.0, 0.0, 0.0, 0, 768, 1, 64
0.0, 0.0, 75833, 0.0, -4.412522315979004, -0.2621597945690155, -116.85375213623047, 0.0012264163233339787, 0.0015305988490581512, 0.0017619677819311619, 0.0, 0.0, 0.0, 0, 0, 0, 0, 0, -1024, 15.0, 2.0, 15.0, 2.0, 20.149999618530273, 5.0, 0, 1, 2, 3, 0, 100, -322, -261, -1103, 22, -392, -3072, -3072, -912, 0, 0, -1024, 0, 0, 0, 0, 0, 0, 0, 0, 0, -1024, 0, 0, 0, 79, 0, 0, 52, 0.0, 0.0, 0.0, 0.0, 2.0, 0.0, 0.0, 1.0, 0.0, 0.0, 1.0, 0.0, 0.0, 1.0, 0.0, 0.0, 0.0, 0, 768, 1, 68
0.0, 0.0, 75833, 0.0, -4.412522315979004, -0.2621597945690155, -116.85375213623047, 0.0012264163233339787, 0.0015305988490581512, 0.0017619677819311619, 0.0, 0.0, 0.0, 0, 0, 0, 0, 0, -1024, 15.0, 2.0, 15.0, 2.0, 20.149999618530273, 5.0, 0, 1, 2, 3, 0, 100, -322, -261, -1103, 22, -392, -3072, -3072, -912, 0, 0, -1024, 0, 0, 0, 0, 0, 0, 0, 0, 0, -1024, 0, 0, 0, 79, 0, 0, 52, 0.0, 0.0, 0.0, 0.0, 2.0, 0.0, 0.0, 1.0, 0.0, 0.0, 1.0, 0.0, 0.0, 1.0, 0.0, 0.0, 0.0, 0, 768, 1, 68
0.0, 0.0, 77103, 0.0, -4.414634704589844, -0.2672080099582672, -116.85357666015625, -0.0016988592687994242, -0.0016707750037312508, 0.0015402219723910093, 0.0, 0.0, 0.0, 0, 0, 0, 0, 0, -1024, 15.0, 2.0, 15.0, 2.0, 20.149999618530273, 5.0, 0, 1, 2, 3, 0, 100, -322, -261, -1103, 22, -392, -3072, -3072, -912, 0, 0, -1024, 0, 0, 0, 0, 0, 0, 0, 0, 0, -1024, 0, 0, 0, 79, 0, 0, 52, 0.0, 0.0, 0.0, 0.0, 2.0, 0.0, 0.0, 1.0, 0.0, 0.0, 1.0, 0.0, 0.0, 1.0, 0.0, 0.0, 0.0, 0, 768, 1, 66
0.0, 0.0, 77103, 0.0, -4.414634704589844, -0.2672080099582672, -116.85357666015625, -0.0016988592687994242, -0.0016707750037312508, 0.0015402219723910093, 0.0, 0.0, 0.0, 0, 0, 0, 0, 0, -1024, 15.0, 2.0, 15.0, 2.0, 20.149999618530273, 5.0, 0, 1, 2, 3, 0, 100, -322, -261, -1103, -2552, -392, -3072, -3072, -912, 0, 0, -1024, 0, 0, 0, 0, 0, 0, 0, 0, 0, -1024, 0, 0, 0, 74, 0, 0, 143, 0.0, 0.0, 0.0, 0.0, 2.0, 0.0, 0.0, 1.0, 0.0, 0.0, 1.0, 0.0, 0.0, 1.0, 0.0, 0.0, 0.0, 0, 768, 1, 66
0.0, 0.0, 77103, 0.0, -4.414634704589844, -0.2672080099582672, -116.85357666015625, -0.0016988592687994242, -0.0016707750037312508, 0.0015402219723910093, 0.0, 0.0, 0.0, 0, 0, 0, 0, 0, -1024, 15.0, 2.0, 15.0, 2.0, 20.149999618530273, 5.0, 0, 1, 2, 3, 0, 100, -322, -261, -1103, -2552, -392, -3072, -3072, -912, 0, 0, -1024, 0, 0, 0, 0, 0, 0, 0, 0, 0, -1024, 0, 0, 0, 74, 0, 0, 143, 0.0, 0.0, 0.0, 0.0, 2.0, 0.0, 0.0, 1.0, 0.0, 0.0, 1.0, 0.0, 0.0, 1.0, 0.0, 0.0, 0.0, 0, 768, 1, 65
0.0, 0.0, 78374, 0.0, -4.418095588684082, -0.30341795086860657, -116.87139892578125, 0.00036617135629057884, -0.0004517175257205963, -0.0008016289211809635, 0.0, 0.0, 0.0, 0, 0, 0, 0, 0, -1024, 15.0, 2.0, 15.0, 2.0, 20.149999618530273, 5.0, 0, 1, 2, 3, 0, 100, -322, -261, -1103, -2552, -392, -3072, -3072, -912, 0, 0, -1024, 0, 0, 0, 0, 0, 0, 0, 0, 0, -1024, 0, 0, 0, 74, 0, 0, 143, 0.0, 0.0, 0.0, 0.0, 2.0, 0.0, 0.0, 1.0, 0.0, 0.0, 1.0, 0.0, 0.0, 1.0, 0.0, 0.0, 0.0, 0, 768, 1, 65
0.0, 0.0, 78374, 0.0, -4.418095588684082, -0.30341795086860657, -116.87139892578125, 0.00036617135629057884, -0.0004517175257205963, -0.0008016289211809635, 0.0, 0.0, 0.0, 0, 0, 0, 0, 0, -1024, 15.0, 2.0, 15.0, 2.0, 20.149999618530273, 5.0, 0, 1, 2, 3, 0, 100, -322, -2826, -1106, 22, -395, -3072, -3072, -912, 0, 0, -1024, 0, 0, 0, 0, 0, 0, 0, 0, 0, -1024, 0, 0, 0, 79, 0, 0, 52, 0.0, 0.0, 0.0, 0.0, 2.0, 0.0, 0.0, 1.0, 0.0, 0.0, 1.0, 0.0, 0.0, 1.0, 0.0, 0.0, 0.0, 0, 768, 1, 64
0.0, 0.0, 78374, 0.0, -4.418095588684082, -0.30341795086860657, -116.87139892578125, 0.00036617135629057884, -0.0004517175257205963, -0.0008016289211809635, 0.0, 0.0, 0.0, 0, 0, 0, 0, 0, -1024, 15.0, 2.0, 15.0, 2.0, 20.149999618530273, 5.0, 0, 1, 2, 3, 0, 100, -322, -2826, -1106, 22, -395, -3072, -3072, -912, 0, 0, -1024, 0, 0, 0, 0, 0, 0, 0, 0, 0, -1024, 0, 0, 0, 79, 0, 0, 52, 0.0, 0.0, 0.0, 0.0, 2.0, 0.0, 0.0, 1.0, 0.0, 0.0, 1.0, 0.0, 0.0, 1.0, 0.0, 0.0, 0.0, 0, 768, 1, 64
0.0, 0.0, 79645, 0.0, -4.42771053314209, -0.26943597197532654, -116.8501205444336, 0.00025283213471993804, 0.001068290788680315, 0.0018596765585243702, 0.0, 0.0, 0.0, 0, 0, 0, 0, 0, -1024, 15.0, 2.0, 15.0, 2.0, 20.149999618530273, 5.0, 0, 1, 2, 3, 0, 100, -322, -2826, -1106, 22, -395, -3072, -3072, -912, 0, 0, -1024, 0, 0, 0, 0, 0, 0, 0, 0, 0, -1024, 0, 0, 0, 79, 0, 0, 52, 0.0, 0.0, 0.0, 0.0, 2.0, 0.0, 0.0, 1.0, 0.0, 0.0, 1.0, 0.0, 0.0, 1.0, 0.0, 0.0, 0.0, 0, 768, 1, 66
0.0, 0.0, 79645, 0.0, -4.42771053314209, -0.26943597197532654, -116.8501205444336, 0.00025283213471993804, 0.001068290788680315, 0.0018596765585243702, 0.0, 0.0, 0.0, 0, 0, 0, 0, 0, -1024, 15.0, 2.0, 15.0, 2.0, 20.149999618530273, 5.0, 0, 1, 2, 3, 0, 100, -322, -261, -1106, 15, -392, -3072, -3072, -912, 0, 0, -1024, 0, 0, 0, 0, 0, 0, 0, 0, 0, -1024, 0, 0, 0, 74, 0, 0, 143, 0.0, 0.0, 0.0, 0.0, 2.0, 0.0, 0.0, 1.0, 0.0, 0.0, 1.0, 0.0, 0.0, 1.0, 0.0, 0.0, 0.0, 0, 768, 1, 66
0.0, 0.0, 79645, 0.0, -4.42771053314209, -0.26943597197532654, -116.8501205444336, 0.00025283213471993804, 0.001068290788680315, 0.0018596765585243702, 0.0, 0.0, 0.0, 0, 0, 0, 0, 0, -1024, 15.0, 2.0, 15.0, 2.0, 20.149999618530273, 5.0, 0, 1, 2, 3, 0, 100, -322, -261, -1106, 15, -392, -3072, -3072, -912, 0, 0, -1024, 0, 0, 0, 0, 0, 0, 0, 0, 0, -1024, 0, 0, 0, 74, 0, 0, 143, 0.0, 0.0, 0.0, 0.0, 2.0, 0.0, 0.0, 1.0, 0.0, 0.0, 1.0, 0.0, 0.0, 1.0, 0.0, 0.0, 0.0, 0, 768, 1, 65
0.0, 0.0, 80915, 0.0, -4.417335033416748, -0.2954265773296356, -116.83821868896484, 0.0009822051506489515, -0.003651159815490246, -0.0023164907470345497, 0.0, 0.0, 0.0, 0, 0, 0, 0, 0, -1024, 15.0, 2.0, 15.0, 2.0, 20.149999618530273, 5.0, 0, 1, 2, 3, 0, 100, -322, -261, -1106, 15, -392, -3072, -3072, -912, 0, 0, -1024, 0, 0, 0, 0, 0, 0, 0, 0, 0, -1024, 0, 0, 0, 74, 0, 0, 143, 0.0, 0.0, 0.0, 0.0, 2.0, 0.0, 0.0, 1.0, 0.0, 0.0, 1.0, 0.0, 0.0, 1.0, 0.0, 0.0, 0.0, 0, 768, 1, 65
0.0, 0.0, 80915, 0.0, -4.417335033416748, -0.2954265773296356, -116.83821868896484, 0.0009822051506489515, -0.003651159815490246, -0.0023164907470345497, 0.0, 0.0, 0.0, 0, 0, 0, 0, 0, -1024, 15.0, 2.0, 15.0, 2.0, 20.149999618530273, 5.0, 0, 1, 2, 3, 0, 100, -322, -261, -1103, 22, -392, -3072, -3072, -909, 0, 0, -1024, 0, 0, 0, 0, 0, 0, 0, 0, 0, -1024, 0, 0, 0, 79, 0, 0, 52, 0.0, 0.0, 0.0, 0.0, 2.0, 0.0, 0.0, 1.0, 0.0, 0.0, 1.0, 0.0, 0.0, 1.0, 0.0, 0.0, 0.0, 0, 768, 1, 63
0.0, 0.0, 80915, 0.0, -4.417335033416748, -0.2954265773296356, -116.83821868896484, 0.0009822051506489515, -0.003651159815490246, -0.0023164907470345497, 0.0, 0.0, 0.0, 0, 0, 0, 0, 0, -1024, 15.0, 2.0, 15.0, 2.0, 20.149999618530273, 5.0, 0, 1, 2, 3, 0, 100, -322, -261, -1103, 22, -392, -3072, -3072, -909, 0, 0, -1024, 0, 0, 0, 0, 0, 0, 0, 0, 0, -1024, 0, 0, 0, 79, 0, 0, 52, 0.0, 0.0, 0.0, 0.0, 2.0, 0.0, 0.0, 1.0, 0.0, 0.0, 1.0, 0.0, 0.0, 1.0, 0.0, 0.0, 0.0, 0, 768, 1, 63
0.0, 0.0, 82186, 0.0, -4.418631553649902, -0.2951257824897766, -116.82621002197266, 0.0003377057146281004, 0.002231608610600233, 0.00186496926471591, 0.0, 0.0, 0.0, 0, 0, 0, 0, 0, -1024, 15.0, 2.0, 15.0, 2.0, 20.149999618530273, 5.0, 0, 1, 2, 3, 0, 100, -322, -261, -1103, 22, -392, -3072, -3072, -909, 0, 0, -1024, 0, 0, 0, 0, 0, 0, 0, 0, 0, -1024, 0, 0, 0, 79, 0, 0, 52, 0.0, 0.0, 0.0, 0.0, 2.0, 0.0, 0.0, 1.0, 0.0, 0.0, 1.0, 0.0, 0.0, 1.0, 0.0, 0.0, 0.0, 0, 768, 1, 65
0.0, 0.0, 82186, 0.0, -4.418631553649902, -0.2951257824897766, -116.82621002197266, 0.0003377057146281004, 0.002231608610600233, 0.00186496926471591, 0.0, 0.0, 0.0, 0, 0, 0, 0, 0, -1024, 15.0, 2.0, 15.0, 2.0, 20.149999618530273, 5.0, 0, 1, 2, 3, 0, 100, -322, -264, -1106, 22, -392, -3072, -3072, -912, 0, 0, -1024, 0, 0, 0, 0, 0, 0, 0, 0, 0, -1024, 0, 0, 0, 74, 0, 0, 143, 0.0, 0.0, 0.0, 0.0, 2.0, 0.0, 0.0, 1.0, 0.0, 0.0, 1.0, 0.0, 0.0, 1.0, 0.0, 0.0, 0.0, 0, 768, 1, 65
0.0, 0.0, 82186, 0.0, -4.418631553649902, -0.2951257824897766, -116.82621002197266, 0.0003377057146281004, 0.002231608610600233, 0.00186496926471591, 0.0, 0.0, 0.0, 0, 0, 0, 0, 0, -1024, 15.0, 2.0, 15.0, 2.0, 20.149999618530273, 5.0, 0, 1, 2, 3, 0, 100, -322, -264, -1106, 22, -392, -3072, -3072, -912, 0, 0, -1024, 0, 0, 0, 0, 0, 0, 0, 0, 0, -1024, 0, 0, 0, 74, 0, 0, 143, 0.0, 0.0, 0.0, 0.0, 2.0, 0.0, 0.0, 1.0, 0.0, 0.0, 1.0, 0.0, 0.0, 1.0, 0.0, 0.0, 0.0, 0, 768, 1, 64
0.0, 0.0, 83457, 0.0, -4.428515911102295, -0.294725626707077, -116.82103729248047, 0.0016573243774473667, 0.006943127140402794, 0.002231079386547208, 0.0, 0.0, 0.0, 0, 0, 0, 0, 0, -1024, 15.0, 2.0, 15.0, 2.0, 20.149999618530273, 5.0, 0, 1, 2, 3, 0, 100, -322, -264, -1106, 22, -392, -3072, -3072, -912, 0, 0, -1024, 0, 0, 0, 0, 0, 0, 0, 0, 0, -1024, 0, 0, 0, 74, 0, 0, 143, 0.0, 0.0, 0.0, 0.0, 2.0, 0.0, 0.0, 1.0, 0.0, 0.0, 1.0, 0.0, 0.0, 1.0, 0.0, 0.0, 0.0, 0, 768, 1, 64
0.0, 0.0, 83457, 0.0, -4.428515911102295, -0.294725626707077, -116.82103729248047, 0.0016573243774473667, 0.006943127140402794, 0.002231079386547208, 0.0, 0.0, 0.0, 0, 0, 0, 0, 0, -1024, 15.0, 2.0, 15.0, 2.0, 20.149999618530273, 5.0, 0, 1, 2, 3, 0, 100, -322, -261, -1106, 25, -392, -3072, -3072, -912, 0, 0, -1024, 0, 0, 0, 0, 0, 0, 0, 0, 0, -1024, 0, 0, 0, 79, 0, 0, 52, 0.0, 0.0, 0.0, 0.0, 2.0, 0.0, 0.0, 1.0, 0.0, 0.0, 1.0, 0.0, 0.0, 1.0, 0.0, 0.0, 0.0, 0, 768, 1, 64
0.0, 0.0, 83457, 0.0, -4.428515911102295, -0.294725626707077, -116.82103729248047, 0.0016573243774473667, 0.006943127140402794, 0.002231079386547208, 0.0, 0.0, 0.0, 0, 0, 0, 0, 0, -1024, 15.0, 2.0, 15.0, 2.0, 20.149999618530273, 5.0, 0, 1, 2, 3, 0, 100, -322, -261, -1106, 25, -392, -3072, -3072, -912, 0, 0, -1024, 0, 0, 0, 0, 0, 0, 0, 0, 0, -1024, 0, 0, 0, 79, 0, 0, 52, 0.0, 0.0, 0.0, 0.0, 2.0, 0.0, 0.0, 1.0, 0.0, 0.0, 1.0, 0.0, 0.0, 1.0, 0.0, 0.0, 0.0, 0, 768, 1, 64
0.0, 0.0, 84727, 0.0, -4.410116195678711, -0.2752267122268677, -116.8133316040039, -0.0005952296778559685, 0.003999825567007065, 0.0024361705873161554, 0.0, 0.0, 0.0, 0, 0, 0, 0, 0, -1024, 15.0, 2.0, 15.0, 2.0, 20.149999618530273, 5.0, 0, 1, 2, 3, 0, 100, -322, -261, -1106, 25, -392, -3072, -3072, -912, 0, 0, -1024, 0, 0, 0, 0, 0, 0, 0, 0, 0, -1024, 0, 0, 0, 79, 0, 0, 52, 0.0, 0.0, 0.0, 0.0, 2.0, 0.0, 0.0, 1.0, 0.0, 0.0, 1.0, 0.0, 0.0, 1.0, 0.0, 0.0, 0.0, 0, 768, 1, 65
0.0, 0.0, 84727, 0.0, -4.410116195678711, -0.2752267122268677, -116.8133316040039, -0.0005952296778559685, 0.003999825567007065, 0.0024361705873161554, 0.0, 0.0, 0.0, 0, 0, 0, 0, 0, -1024, 15.0, 2.0, 15.0, 2.0, 20.149999618530273, 5.0, 0, 1, 2, 3, 0, 100, -322, -261, -1106, 22, -2960, -3072, -3072, -912, 0, 0, -1024, 0, 0, 0, 0, 0, 0, 0, 0, 0, -1024, 0, 0, 0, 74, 0, 0, 143, 0.0, 0.0, 0.0, 0.0, 2.0, 0.0, 0.0, 1.0, 0.0, 0.0, 1.0, 0.0, 0.0, 1.0, 0.0, 0.0, 0.0, 0, 768, 1, 65
0.0, 0.0, 84727, 0.0, -4.410116195678711, -0.2752267122268677, -116.8133316040039, -0.0005952296778559685, 0.003999825567007065, 0.0024361705873161554, 0.0, 0.0, 0.0, 0, 0, 0, 0, 0, -1024, 15.0, 2.0, 15.0, 2.0, 20.149999618530273, 5.0, 0, 1, 2, 3, 0, 100, -322, -261, -1106, 22, -2960, -3072, -3072, -912, 0, 0, -1024, 0, 0, 0, 0, 0, 0, 0, 0, 0, -1024, 0, 0, 0, 74, 0, 0, 143, 0.0, 0.0, 0.0, 0.0, 2.0, 0.0, 0.0, 1.0, 0.0, 0.0, 1.0, 0.0, 0.0, 1.0, 0.0, 0.0, 0.0, 0, 768, 1, 64
0.0, 0.0, 85998, 0.0, -4.434649467468262, -0.33189067244529724, -116.82483673095703, -0.0030999723821878433, -0.007902593351900578, -0.009731603786349297, 0.0, 0.0, 0.0, 0, 0, 0, 0, 0, -1024, 15.0, 2.0, 15.0, 2.0, 20.149999618530273, 5.0, 0, 1, 2, 3, 0, 100, -322, -261, -1106, 22, -2960, -3072, -3072, -912, 0, 0, -1024, 0, 0, 0, 0, 0, 0, 0, 0, 0, -1024, 0, 0, 0, 74, 0, 0, 143, 0.0, 0.0, 0.0, 0.0, 2.0, 0.0, 0.0, 1.0, 0.0, 0.0, 1.0, 0.0, 0.0, 1.0, 0.0, 0.0, 0.0, 0, 768, 1, 64
0.0, 0.0, 85998, 0.0, -4.434649467468262, -0.33189067244529724, -116.82483673095703, -0.0030999723821878433, -0.007902593351900578, -0.009731603786349297, 0.0, 0.0, 0.0, 0, 0, 0, 0, 0, -1024, 15.0, 2.0, 15.0, 2.0, 20.149999618530273, 5.0, 0, 1, 2, 3, 0, 100, -322, -261, -1106, 25, -392, -3072, -3072, -912, 0, 0, -1024, 0, 0, 0, 0, 0, 0, 0, 0, 0, -1024, 0, 0, 0, 79, 0, 0, 52, 0.0, 0.0, 0.0, 0.0, 2.0, 0.0, 0.0, 1.0, 0.0, 0.0, 1.0, 0.0, 0.0, 1.0, 0.0, 0.0, 0.0, 0, 768, 1, 66
0.0, 0.0, 85998, 0.0, -4.434649467468262, -0.33189067244529724, -116.82483673095703, -0.0030999723821878433, -0.007902593351900578, -0.009731603786349297, 0.0, 0.0, 0.0, 0, 0, 0, 0, 0, -1024, 15.0, 2.0, 15.0, 2.0, 20.149999618530273, 5.0, 0, 1, 2, 3, 0, 100, -322, -261, -1106, 25, -392, -3072, -3072, -912, 0, 0, -1024, 0, 0, 0, 0, 0, 0, 0, 0, 0, -1024, 0, 0, 0, 79, 0, 0, 52, 0.0, 0.0, 0.0, 0.0, 2.0, 0.0, 0.0, 1.0, 0.0, 0.0, 1.0, 0.0, 0.0, 1.0, 0.0, 0.0, 0.0, 0, 768, 1, 66
0.0, 0.0, 87268, 0.0, -4.438958168029785, -0.32098159193992615, -116.79368591308594, 0.005408259108662605, 0.00928070954978466, 0.0014723115600645542, 0.0, 0.0, 0.0, 0, 0, 0, 0, 0, -1024, 15.0, 2.0, 15.0, 2.0, 20.149999618530273, 5.0, 0, 1, 2, 3, 0, 100, -322, -261, -1106, 25, -392, -3072, -3072, -912, 0, 0, -1024, 0, 0, 0, 0, 0, 0, 0, 0, 0, -1024, 0, 0, 0, 79, 0, 0, 52, 0.0, 0.0, 0.0, 0.0, 2.0, 0.0, 0.0, 1.0, 0.0, 0.0, 1.0, 0.0, 0.0, 1.0, 0.0, 0.0, 0.0, 0, 768, 1, 66
0.0, 0.0, 87268, 0.0, -4.438958168029785, -0.32098159193992615, -116.79368591308594, 0.005408259108662605, 0.00928070954978466, 0.0014723115600645542, 0.0, 0.0, 0.0, 0, 0, 0, 0, 0, -1024, 15.0, 2.0, 15.0, 2.0, 20.149999618530273, 5.0, 0, 1, 2, 3, 0, 100, -322, -261, -1103, -2548, -392, -3072, -3072, -912, 0, 0, -1024, 0, 0, 0, 0, 0, 0, 0, 0, 0, -1024, 0, 0, 0, 74, 0, 0, 143, 0.0, 0.0, 0.0, 0.0, 2.0, 0.0, 0.0, 1.0, 0.0, 0.0, 1.0, 0.0, 0.0, 1.0, 0.0, 0.0, 0.0, 0, 768, 1, 66
0.0, 0.0, 87268, 0.0, -4.438958168029785, -0.32098159193992615, -116.79368591308594, 0.005408259108662605, 0.00928070954978466, 0.0014723115600645542, 0.0, 0.0, 0.0, 0, 0, 0, 0, 0, -1024, 15.0, 2.0, 15.0, 2.0, 20.149999618530273, 5.0, 0, 1, 2, 3, 0, 100, -322, -261, -1103, -2548, -392, -3072, -3072, -912, 0, 0, -1024, 0, 0, 0, 0, 0, 0, 0, 0, 0, -1024, 0, 0, 0, 74, 0, 0, 143, 0.0, 0.0, 0.0, 0.0, 2.0, 0.0, 0.0, 1.0, 0.0, 0.0, 1.0, 0.0, 0.0, 1.0, 0.0, 0.0, 0.0, 0, 768, 1, 63
0.0, 0.0, 88539, 0.0, -4.413349628448486, -0.2539959251880646, -116.77494812011719, 0.0018610521219670773, 0.004299642983824015, -0.0009377100504934788, 0.0, 0.0, 0.0, 0, 0, 0, 0, 0, -1024, 15.0, 2.0, 15.0, 2.0, 20.149999618530273, 5.0, 0, 1, 2, 3, 0, 100, -322, -261, -1103, -2548, -392, -3072, -3072, -912, 0, 0, -1024, 0, 0, 0, 0, 0, 0, 0, 0, 0, -1024, 0, 0, 0, 74, 0, 0, 143, 0.0, 0.0, 0.0, 0.0, 2.0, 0.0, 0.0, 1.0, 0.0, 0.0, 1.0, 0.0, 0.0, 1.0, 0.0, 0.0, 0.0, 0, 768, 1, 63
0.0, 0.0, 88539, 0.0, -4.413349628448486, -0.2539959251880646, -116.77494812011719, 0.0018610521219670773, 0.004299642983824015, -0.0009377100504934788, 0.0, 0.0, 0.0, 0, 0, 0, 0, 0, -1024, 15.0, 2.0, 15.0, 2.0, 20.149999618530273, 5.0, 0, 1, 2, 3, 0, 100, -2886, -258, -1106, 25, -395, -3072, -3072, -921, 0, 0, -1024, 0, 0, 0, 0, 0, 0, 0, 0, 0, -1024, 0, 0, 0, 79, 0, 0, 52, 0.0, 0.0, 0.0, 0.0, 2.0, 0.0, 0.0, 1.0, 0.0, 0.0, 1.0, 0.0, 0.0, 1.0, 0.0, 0.0, 0.0, 0, 768, 1, 62
0.0, 0.0, 88539, 0.0, -4.413349628448486, -0.2539959251880646, -116.77494812011719, 0.0018610521219670773, 0.004299642983824015, -0.0009377100504934788, 0.0, 0.0, 0.0, 0, 0, 0, 0, 0, -1024, 15.0, 2.0, 15.0, 2.0, 20.149999618530273, 5.0, 0, 1, 2, 3, 0, 100, -2886, -258, -1106, 25, -395, -3072, -3072, -921, 0, 0, -1024, 0, 0, 0, 0, 0, 0, 0, 0, 0, -1024, 0, 0, 0, 79, 0, 0, 52, 0.0, 0.0, 0.0, 0.0, 2.0, 0.0, 0.0, 1.0, 0.0, 0.0, 1.0, 0.0, 0.0, 1.0, 0.0, 0.0, 0.0, 0, 768, 1, 62
0.0, 0.0, 89810, 0.0, -4.422632694244385, -0.27892768383026123, -116.78434753417969, 0.0026284493505954742, 0.008923515677452087, 0.0011831200681626797, 0.0, 0.0, 0.0, 0, 0, 0, 0, 0, -1024, 15.0, 2.0, 15.0, 2.0, 20.149999618530273, 5.0, 0, 1, 2, 3, 0, 100, -2886, -258, -1106, 25, -395, -3072, -3072, -921, 0, 0, -1024, 0, 0, 0, 0, 0, 0, 0, 0, 0, -1024, 0, 0, 0, 79, 0, 0, 52, 0.0, 0.0, 0.0, 0.0, 2.0, 0.0, 0.0, 1.0, 0.0, 0.0, 1.0, 0.0, 0.0, 1.0, 0.0, 0.0, 0.0, 0, 768, 1, 70
0.0, 0.0, 89810, 0.0, -4.422632694244385, -0.27892768383026123, -116.78434753417969, 0.0026284493505954742, 0.008923515677452087, 0.0011831200681626797, 0.0, 0.0, 0.0, 0, 0, 0, 0, 0, -1024, 15.0, 2.0, 15.0, 2.0, 20.149999618530273, 5.0, 0, 1, 2, 3, 0, 100, -322, -258, -1103, 22, -392, -3072, -3072, -912, 0, 0, -1024, 0, 0, 0, 0, 0, 0, 0, 0, 0, -1024, 0, 0, 0, 74, 0, 0, 143, 0.0, 0.0, 0.0, 0.0, 2.0, 0.0, 0.0, 1.0, 0.0, 0.0, 1.0, 0.0, 0.0, 1.0, 0.0, 0.0, 0.0, 0, 768, 1, 70
0.0, 0.0, 89810, 0.0, -4.422632694244385, -0.27892768383026123, -116.78434753417969, 0.0026284493505954742, 0.008923515677452087, 0.0011831200681626797, 0.0, 0.0, 0.0, 0, 0, 0, 0, 0, -1024, 15.0, 2.0, 15.0, 2.0, 20.149999618530273, 5.0, 0, 1, 2, 3, 0, 100, -322, -258, -1103, 22, -392, -3072, -3072, -912, 0, 0, -1024, 0, 0, 0, 0, 0, 0, 0, 0, 0, -1024, 0, 0, 0, 74, 0, 0, 143, 0.0, 0.0, 0.0, 0.0, 2.0, 0.0, 0.0, 1.0, 0.0, 0.0, 1.0, 0.0, 0.0, 1.0, 0.0, 0.0, 0.0, 0, 768, 1, 65
0.0, 0.0, 91080, 0.0, -4.413821220397949, -0.2965173125267029, -116.76935577392578, 0.0014901753747835755, 0.0024438416585326195, -0.001087471842765808, 0.0, 0.0, 0.0, 0, 0, 0, 0, 0, -1024, 15.0, 2.0, 15.0, 2.0, 20.149999618530273, 5.0, 0, 1, 2, 3, 0, 100, -322, -258, -1103, 22, -392, -3072, -3072, -912, 0, 0, -1024, 0, 0, 0, 0, 0, 0, 0, 0, 0, -1024, 0, 0, 0, 74, 0, 0, 143, 0.0, 0.0, 0.0, 0.0, 2.0, 0.0, 0.0, 1.0, 0.0, 0.0, 1.0, 0.0, 0.0, 1.0, 0.0, 0.0, 0.0, 0, 768, 1, 65
0.0, 0.0, 91080, 0.0, -4.413821220397949, -0.2965173125267029, -116.76935577392578, 0.0014901753747835755, 0.0024438416585326195, -0.001087471842765808, 0.0, 0.0, 0.0, 0, 0, 0, 0, 0, -1024, 15.0, 2.0, 15.0, 2.0, 20.149999618530273, 5.0, 0, 1, 2, 3, 0, 100, -322, -258, -1103, 22, -395, -3072, -3072, -918, 0, 0, -1024, 0, 0, 0, 0, 0, 0, 0, 0, 0, -1024, 0, 0, 0, 79, 0, 0, 52, 0.0, 0.0, 0.0, 0.0, 2.0, 0.0, 0.0, 1.0, 0.0, 0.0, 1.0, 0.0, 0.0, 1.0, 0.0, 0.0, 0.0, 0, 768, 1, 63
0.0, 0.0, 91080, 0.0, -4.413821220397949, -0.2965173125267029, -116.76935577392578, 0.0014901753747835755, 0.0024438416585326195, -0.001087471842765808, 0.0, 0.0, 0.0, 0, 0, 0, 0, 0, -1024, 15.0, 2.0, 15.0, 2.0, 20.149999618530273, 5.0, 0, 1, 2, 3, 0, 100, -322, -258, -1103, 22, -395, -3072, -3072, -918, 0, 0, -1024, 0, 0, 0, 0, 0, 0, 0, 0, 0, -1024, 0, 0, 0, 79, 0, 0, 52, 0.0, 0.0, 0.0, 0.0, 2.0, 0.0, 0.0, 1.0, 0.0, 0.0, 1.0, 0.0, 0.0, 1.0, 0.0, 0.0, 0.0, 0, 768, 1, 63
0.0, 0.0, 92351, 0.0, -4.413486480712891, -0.2906686067581177, -116.77529907226562, -0.002945323707535863, -0.011412711814045906, -0.00376056507229805, 0.0, 0.0, 0.0, 0, 0, 0, 0, 0, -1024, 15.0, 2.0, 15.0, 2.0, 20.149999618530273, 5.0, 0, 1, 2, 3, 0, 100, -322, -258, -1103, 22, -395, -3072, -3072, -918, 0, 0, -1024, 0, 0, 0, 0, 0, 0, 0, 0, 0, -1024, 0, 0, 0, 79, 0, 0, 52, 0.0, 0.0, 0.0, 0.0, 2.0, 0.0, 0.0, 1.0, 0.0, 0.0, 1.0, 0.0, 0.0, 1.0, 0.0, 0.0, 0.0, 0, 768, 1, 66
0.0, 0.0, 92351, 0.0, -4.413486480712891, -0.2906686067581177, -116.77529907226562, -0.002945323707535863, -0.011412711814045906, -0.00376056507229805, 0.0, 0.0, 0.0, 0, 0, 0, 0, 0, -1024, 15.0, 2.0, 15.0, 2.0, 20.149999618530273, 5.0, 0, 1, 2, 3, 0, 100, -322, -264, -1103, 22, -395, -3072, -3072, -912, 0, 0, -1024, 0, 0, 0, 0, 0, 0, 0, 0, 0, -1024, 0, 0, 0, 74, 0, 0, 143, 0.0, 0.0, 0.0, 0.0, 2.0, 0.0, 0.0, 1.0, 0.0, 0.0, 1.0, 0.0, 0.0, 1.0, 0.0, 0.0, 0.0, 0, 768, 1, 66
0.0, 0.0, 92351, 0.0, -4.413486480712891, -0.2906686067581177, -116.77529907226562, -0.002945323707535863, -0.011412711814045906, -0.00376056507229805, 0.0, 0.0, 0.0, 0, 0, 0, 0, 0, -1024, 15.0, 2.0, 15.0, 2.0, 20.149999618530273, 5.0, 0, 1, 2, 3, 0, 100, -322, -264, -1103, 22, -395, -3072, -3072, -912, 0, 0, -1024, 0, 0, 0, 0, 0, 0, 0, 0, 0, -1024, 0, 0, 0, 74, 0, 0, 143, 0.0, 0.0, 0.0, 0.0, 2.0, 0.0, 0.0, 1.0, 0.0, 0.0, 1.0, 0.0, 0.0, 1.0, 0.0, 0.0, 0.0, 0, 768, 1, 66
0.0, 0.0, 93622, 0.0, -4.421364784240723, -0.29138511419296265, -116.75912475585938, 0.0015858764527365565, 0.002857170533388853, 0.0033711346331983805, 0.0, 0.0, 0.0, 0, 0, 0, 0, 0, -1024, 15.0, 2.0, 15.0, 2.0, 20.149999618530273, 5.0, 0, 1, 2, 3, 0, 100, -322, -264, -1103, 22, -395, -3072, -3072, -912, 0, 0, -1024, 0, 0, 0, 0, 0, 0, 0, 0, 0, -1024, 0, 0, 0, 74, 0, 0, 143, 0.0, 0.0, 0.0, 0.0, 2.0, 0.0, 0.0, 1.0, 0.0, 0.0, 1.0, 0.0, 0.0, 1.0, 0.0, 0.0, 0.0, 0, 768, 1, 66
0.0, 0.0, 93622, 0.0, -4.421364784240723, -0.29138511419296265, -116.75912475585938, 0.0015858764527365565, 0.002857170533388853, 0.0033711346331983805, 0.0, 0.0, 0.0, 0, 0, 0, 0, 0, -1024, 15.0, 2.0, 15.0, 2.0, 20.149999618530273, 5.0, 0, 1, 2, 3, 0, 100, -322, -258, -1103, 15, -395, -3072, -3072, -912, 0, 0, -1024, 0, 0, 0, 0, 0, 0, 0, 0, 0, -1024, 0, 0, 0, 79, 0, 0, 52, 0.0, 0.0, 0.0, 0.0, 2.0, 0.0, 0.0, 1.0, 0.0, 0.0, 1.0, 0.0, 0.0, 1.0, 0.0, 0.0, 0.0, 0, 768, 1, 65
0.0, 0.0, 93622, 0.0, -4.421364784240723, -0.29138511419296265, -116.75912475585938, 0.0015858764527365565, 0.002857170533388853, 0.0033711346331983805, 0.0, 0.0, 0.0, 0, 0, 0, 0, 0, -1024, 15.0, 2.0, 15.0, 2.0, 20.149999618530273, 5.0, 0, 1, 2, 3, 0, 100, -322, -258, -1103, 15, -395, -3072, -3072, -912, 0, 0, -1024, 0, 0, 0, 0, 0, 0, 0, 0, 0, -1024, 0, 0, 0, 79, 0, 0, 52, 0.0, 0.0, 0.0, 0.0, 2.0, 0.0, 0.0, 1.0, 0.0, 0.0, 1.0, 0.0, 0.0, 1.0, 0.0, 0.0, 0.0, 0, 768, 1, 65
0.0, 0.0, 94892, 0.0, -4.4185004234313965, -0.27428126335144043, -116.75483703613281, -0.00044433330185711384, -0.0009961556643247604, 0.0020025786943733692, 0.0, 0.0, 0.0, 0, 0, 0, 0, 0, -1024, 15.0, 2.0, 15.0, 2.0, 20.149999618530273, 5.0, 0, 1, 2, 3, 0, 100, -322, -258, -1103, 15, -395, -3072, -3072, -912, 0, 0, -1024, 0, 0, 0, 0, 0, 0, 0, 0, 0, -1024, 0, 0, 0, 79, 0, 0, 52, 0.0, 0.0, 0.0, 0.0, 2.0, 0.0, 0.0, 1.0, 0.0, 0.0, 1.0, 0.0, 0.0, 1.0, 0.0, 0.0, 0.0, 0, 768, 1, 62
0.0, 0.0, 94892, 0.0, -4.4185004234313965, -0.27428126335144043, -116.75483703613281, -0.00044433330185711384, -0.0009961556643247604, 0.0020025786943733692, 0.0, 0.0, 0.0, 0, 0, 0, 0, 0, -1024, 15.0, 2.0, 15.0, 2.0, 20.149999618530273, 5.0, 0, 1, 2, 3, 0, 100, -325, -261, -1106, 22, -2966, -3072, -3072, -912, 0, 0, -1024, 0, 0, 0, 0, 0, 0, 0, 0, 0, -1024, 0, 0, 0, 74, 0, 0, 143, 0.0, 0.0, 0.0, 0.0, 2.0, 0.0, 0.0, 1.0, 0.0, 0.0, 1.0, 0.0, 0.0, 1.0, 0.0, 0.0, 0.0, 0, 768, 1, 62
0.0, 0.0, 94892, 0.0, -4.4185004234313965, -0.27428126335144043, -116.75483703613281, -0.00044433330185711384, -0.0009961556643247604, 0.0020025786943733692, 0.0, 0.0, 0.0, 0, 0, 0, 0, 0, -1024, 15.0, 2.0, 15.0, 2.0, 20.149999618530273, 5.0, 0, 1, 2, 3, 0, 100, -325, -261, -1106, 22, -2966, -3072, -3072, -912, 0, 0, -1024, 0, 0, 0, 0, 0, 0, 0, 0, 0, -1024, 0, 0, 0, 74, 0, 0, 143, 0.0, 0.0, 0.0, 0.0, 2.0, 0.0, 0.0, 1.0, 0.0, 0.0, 1.0, 0.0, 0.0, 1.0, 0.0, 0.0, 0.0, 0, 768, 1, 62
0.0, 0.0, 96163, 0.0, -4.431874752044678, -0.31326615810394287, -116.7661361694336, -0.002576598897576332, -0.006141857244074345, -0.0007821489125490189, 0.0, 0.0, 0.0, 0, 0, 0, 0, 0, -1024, 15.0, 2.0, 15.0, 2.0, 20.149999618530273, 5.0, 0, 1, 2, 3, 0, 100, -325, -261, -1106, 22, -2966, -3072, -3072, -912, 0, 0, -1024, 0, 0, 0, 0, 0, 0, 0, 0, 0, -1024, 0, 0, 0, 74, 0, 0, 143, 0.0, 0.0, 0.0, 0.0, 2.0, 0.0, 0.0, 1.0, 0.0, 0.0, 1.0, 0.0, 0.0, 1.0, 0.0, 0.0, 0.0, 0, 768, 1, 62
0.0, 0.0, 96163, 0.0, -4.431874752044678, -0.31326615810394287, -116.7661361694336, -0.002576598897576332, -0.006141857244074345, -0.0007821489125490189, 0.0, 0.0, 0.0, 0, 0, 0, 0, 0, -1024, 15.0, 2.0, 15.0, 2.0, 20.149999618530273, 5.0, 0, 1, 2, 3, 0, 100, -322, -258, -1103, 22, -395, -3072, -3072, -912, 0, 0, -1024, 0, 0, 0, 0, 0, 0, 0, 0, 0, -1024, 0, 0, 0, 79, 0, 0, 52, 0.0, 0.0, 0.0, 0.0, 2.0, 0.0, 0.0, 1.0, 0.0, 0.0, 1.0, 0.0, 0.0, 1.0, 0.0, 0.0, 0.0, 0, 768, 1, 60
0.0, 0.0, 96163, 0.0, -4.431874752044678, -0.31326615810394287, -116.7661361694336, -0.002576598897576332, -0.006141857244074345, -0.0007821489125490189, 0.0, 0.0, 0.0, 0, 0, 0, 0, 0, -1024, 15.0, 2.0, 15.0, 2.0, 20.149999618530273, 5.0, 0, 1, 2, 3, 0, 100, -322, -258, -1103, 22, -395, -3072, -3072, -912, 0, 0, -1024, 0, 0, 0, 0, 0, 0, 0, 0, 0, -1024, 0, 0, 0, 79, 0, 0, 52, 0.0, 0.0, 0.0, 0.0, 2.0, 0.0, 0.0, 1.0, 0.0, 0.0, 1.0, 0.0, 0.0, 1.0, 0.0, 0.0, 0.0, 0, 768, 1, 60
0.0, 0.0, 97434, 0.0, -4.412413120269775, -0.2363392561674118, -116.73698425292969, -0.0033502234145998955, -0.0021131085231900215, 0.0033584916964173317, 0.0, 0.0, 0.0, 0, 0, 0, 0, 0, -1024, 15.0, 2.0, 15.0, 2.0, 20.149999618530273, 5.0, 0, 1, 2, 3, 0, 100, -322, -258, -1103, 22, -395, -3072, -3072, -912, 0, 0, -1024, 0, 0, 0, 0, 0, 0, 0, 0, 0, -1024, 0, 0, 0, 79, 0, 0, 52, 0.0, 0.0, 0.0, 0.0, 2.0, 0.0, 0.0, 1.0, 0.0, 0.0, 1.0, 0.0, 0.0, 1.0, 0.0, 0.0, 0.0, 0, 768, 1, 62
0.0, 0.0, 97434, 0.0, -4.412413120269775, -0.2363392561674118, -116.73698425292969, -0.0033502234145998955, -0.0021131085231900215, 0.0033584916964173317, 0.0, 0.0, 0.0, 0, 0, 0, 0, 0, -1024, 15.0, 2.0, 15.0, 2.0, 20.149999618530273, 5.0, 0, 1, 2, 3, 0, 100, -325, -261, -1103, -2545, -392, -3072, -3072, -918, 0, 0, -1024, 0, 0, 0, 0, 0, 0, 0, 0, 0, -1024, 0, 0, 0, 74, 0, 0, 143, 0.0, 0.0, 0.0, 0.0, 2.0, 0.0, 0.0, 1.0, 0.0, 0.0, 1.0, 0.0, 0.0, 1.0, 0.0, 0.0, 0.0, 0, 768, 1, 62
0.0, 0.0, 97434, 0.0, -4.412413120269775, -0.2363392561674118, -116.73698425292969, -0.0033502234145998955, -0.0021131085231900215, 0.0033584916964173317, 0.0, 0.0, 0.0, 0, 0, 0, 0, 0, -1024, 15.0, 2.0, 15.0, 2.0, 20.149999618530273, 5.0, 0, 1, 2, 3, 0, 100, -325, -261, -1103, -2545, -392, -3072, -3072, -918, 0, 0, -1024, 0, 0, 0, 0, 0, 0, 0, 0, 0, -1024, 0, 0, 0, 74, 0, 0, 143, 0.0, 0.0, 0.0, 0.0, 2.0, 0.0, 0.0, 1.0, 0.0, 0.0, 1.0, 0.0, 0.0, 1.0, 0.0, 0.0, 0.0, 0, 768, 1, 63
0.0, 0.0, 98704, 0.0, -4.405450820922852, -0.23597395420074463, -116.74234008789062, 0.004068833775818348, 0.01898932456970215, 0.0007541617378592491, 0.0, 0.0, 0.0, 0, 0, 0, 0, 0, -1024, 15.0, 2.0, 15.0, 2.0, 20.149999618530273, 5.0, 0, 1, 2, 3, 0, 100, -325, -261, -1103, -2545, -392, -3072, -3072, -918, 0, 0, -1024, 0, 0, 0, 0, 0, 0, 0, 0, 0, -1024, 0, 0, 0, 74, 0, 0, 143, 0.0, 0.0, 0.0, 0.0, 2.0, 0.0, 0.0, 1.0, 0.0, 0.0, 1.0, 0.0, 0.0, 1.0, 0.0, 0.0, 0.0, 0, 768, 1, 63
0.0, 0.0, 98704, 0.0, -4.405450820922852, -0.23597395420074463, -116.74234008789062, 0.004068833775818348, 0.01898932456970215, 0.0007541617378592491, 0.0, 0.0, 0.0, 0, 0, 0, 0, 0, -1024, 15.0, 2.0, 15.0, 2.0, 20.149999618530273, 5.0, 0, 1, 2, 3, 0, 100, -2890, -261, -1106, 25, -392, -3072, -3072, -912, 0, 0, -1024, 0, 0, 0, 0, 0, 0, 0, 0, 0, -1024, 0, 0, 0, 79, 0, 0, 52, 0.0, 0.0, 0.0, 0.0, 2.0, 0.0, 0.0, 1.0, 0.0, 0.0, 1.0, 0.0, 0.0, 1.0, 0.0, 0.0, 0.0, 0, 768, 1, 62
0.0, 0.0, 98704, 0.0, -4.405450820922852, -0.23597395420074463, -116.74234008789062, 0.004068833775818348, 0.01898932456970215, 0.0007541617378592491, 0.0, 0.0, 0.0, 0, 0, 0, 0, 0, -1024, 15.0, 2.0, 15.0, 2.0, 20.149999618530273, 5.0, 0, 1, 2, 3, 0, 100, -2890, -261, -1106, 25, -392, -3072, -3072, -912, 0, 0, -1024, 0, 0, 0, 0, 0, 0, 0, 0, 0, -1024, 0, 0, 0, 79, 0, 0, 52, 0.0, 0.0, 0.0, 0.0, 2.0, 0.0, 0.0, 1.0, 0.0, 0.0, 1.0, 0.0, 0.0, 1.0, 0.0, 0.0, 0.0, 0, 768, 1, 62
0.0, 0.0, 99975, 0.0, -4.425169467926025, -0.2727065980434418, -116.74300384521484, 0.004030900076031685, 0.018239179626107216, 0.013208283111453056, 0.0, 0.0, 0.0, 0, 0, 0, 0, 0, -1024, 15.0, 2.0, 15.0, 2.0, 20.149999618530273, 5.0, 0, 1, 2, 3, 0, 100, -2890, -261, -1106, 25, -392, -3072, -3072, -912, 0, 0, -1024, 0, 0, 0, 0, 0, 0, 0, 0, 0, -1024, 0, 0, 0, 79, 0, 0, 52, 0.0, 0.0, 0.0, 0.0, 2.0, 0.0, 0.0, 1.0, 0.0, 0.0, 1.0, 0.0, 0.0, 1.0, 0.0, 0.0, 0.0, 0, 768, 1, 63
0.0, 0.0, 99975, 0.0, -4.425169467926025, -0.2727065980434418, -116.74300384521484, 0.004030900076031685, 0.018239179626107216, 0.013208283111453056, 0.0, 0.0, 0.0, 0, 0, 0, 0, 0, -1024, 15.0, 2.0, 15.0, 2.0, 20.149999618530273, 5.0, 0, 1, 2, 3, 0, 100, -322, -261, -1106, 22, -395, -3072, -3072, -912, 0, 0, -1024, 0, 0, 0, 0, 0, 0, 0, 0, 0, -1024, 0, 0, 0, 74, 0, 0, 143, 0.0, 0.0, 0.0, 0.0, 2.0, 0.0, 0.0, 1.0, 0.0, 0.0, 1.0, 0.0, 0.0, 1.0, 0.0, 0.0, 0.0, 0, 768, 1, 63
0.0, 0.0, 99975, 0.0, -4.425169467926025, -0.2727065980434418, -116.74300384521484, 0.004030900076031685, 0.018239179626107216, 0.013208283111453056, 0.0, 0.0, 0.0, 0, 0, 0, 0, 0, -1024, 15.0, 2.0, 15.0, 2.0, 20.149999618530273, 5.0, 0, 1, 2, 3, 0, 100, -322, -261, -1106, 22, -395, -3072, -3072, -912, 0, 0, -1024, 0, 0, 0, 0, 0, 0, 0, 0, 0, -1024, 0, 0, 0, 74, 0, 0, 143, 0.0, 0.0, 0.0, 0.0, 2.0, 0.0, 0.0, 1.0, 0.0, 0.0, 1.0, 0.0, 0.0, 1.0, 0.0, 0.0, 0.0, 0, 768, 1, 60
0.0, 0.0, 101246, 0.0, -4.4156084060668945, -0.28403642773628235, -116.74574279785156, 0.00045985731412656605, 0.002825713250786066, 0.0030334407929331064, 0.0, 0.0, 0.0, 0, 0, 0, 0, 0, -1024, 15.0, 2.0, 15.0, 2.0, 20.149999618530273, 5.0, 0, 1, 2, 3, 0, 100, -322, -261, -1106, 22, -395, -3072, -3072, -912, 0, 0, -1024, 0, 0, 0, 0, 0, 0, 0, 0, 0, -1024, 0, 0, 0, 74, 0, 0, 143, 0.0, 0.0, 0.0, 0.0, 2.0, 0.0, 0.0, 1.0, 0.0, 0.0, 1.0, 0.0, 0.0, 1.0, 0.0, 0.0, 0.0, 0, 768, 1, 60
0.0, 0.0, 101246, 0.0, -4.4156084060668945, -0.28403642773628235, -116.74574279785156, 0.00045985731412656605, 0.002825713250786066, 0.0030334407929331064, 0.0, 0.0, 0.0, 0, 0, 0, 0, 0, -1024, 15.0, 2.0, 15.0, 2.0, 20.149999618530273, 5.0, 0, 1, 2, 3, 0, 100, -322, -258, -1106, 25, -395, -3072, -3072, -912, 0, 0, -1024, 0, 0, 0, 0, 0, 0, 0, 0, 0, -1024, 0, 0, 0, 79, 0, 0, 52, 0.0, 0.0, 0.0, 0.0, 2.0, 0.0, 0.0, 1.0, 0.0, 0.0, 1.0, 0.0, 0.0, 1.0, 0.0, 0.0, 0.0, 0, 768, 1, 67
0.0, 0.0, 101246, 0.0, -4.4156084060668945, -0.28403642773628235, -116.74574279785156, 0.00045985731412656605, 0.002825713250786066, 0.0030334407929331064, 0.0, 0.0, 0.0, 0, 0, 0, 0, 0, -1024, 15.0, 2.0, 15.0, 2.0, 20.149999618530273, 5.0, 0, 1, 2, 3, 0, 100, -322, -258, -1106, 25, -395, -3072, -3072, -912, 0, 0, -1024, 0, 0, 0, 0, 0, 0, 0, 0, 0, -1024, 0, 0, 0, 79, 0, 0, 52, 0.0, 0.0, 0.0, 0.0, 2.0, 0.0, 0.0, 1.0, 0.0, 0.0, 1.0, 0.0, 0.0, 1.0, 0.0, 0.0, 0.0, 0, 768, 1, 67
0.0, 0.0, 102516, 0.0, -4.418298244476318, -0.2749651074409485, -116.75855255126953, 0.005196665413677692, 0.013678992167115211, 0.011395102366805077, 0.0, 0.0, 0.0, 0, 0, 0, 0, 0, -1024, 15.0, 2.0, 15.0, 2.0, 20.149999618530273, 5.0, 0, 1, 2, 3, 0, 100, -322, -258, -1106, 25, -395, -3072, -3072, -912, 0, 0, -1024, 0, 0, 0, 0, 0, 0, 0, 0, 0, -1024, 0, 0, 0, 79, 0, 0, 52, 0.0, 0.0, 0.0, 0.0, 2.0, 0.0, 0.0, 1.0, 0.0, 0.0, 1.0, 0.0, 0.0, 1.0, 0.0, 0.0, 0.0, 0, 768, 1, 65
0.0, 0.0, 102516, 0.0, -4.418298244476318, -0.2749651074409485, -116.75855255126953, 0.005196665413677692, 0.013678992167115211, 0.011395102366805077, 0.0, 0.0, 0.0, 0, 0, 0, 0, 0, -1024, 15.0, 2.0, 15.0, 2.0, 20.149999618530273, 5.0, 0, 1, 2, 3, 0, 100, -322, -264, -1103, 22, -392, -3072, -3072, -909, 0, 0, -1024, 0, 0, 0, 0, 0, 0, 0, 0, 0, -1024, 0, 0, 0, 74, 0, 0, 143, 0.0, 0.0, 0.0, 0.0, 2.0, 0.0, 0.0, 1.0, 0.0, 0.0, 1.0, 0.0, 0.0, 1.0, 0.0, 0.0, 0.0, 0, 768, 1, 65
0.0, 0.0, 102516, 0.0, -4.418298244476318, -0.2749651074409485, -116.75855255126953, 0.005196665413677692, 0.013678992167115211, 0.011395102366805077, 0.0, 0.0, 0.0, 0, 0, 0, 0, 0, -1024, 15.0, 2.0, 15.0, 2.0, 20.149999618530273, 5.0, 0, 1, 2, 3, 0, 100, -322, -264, -1103, 22, -392, -3072, -3072, -909, 0, 0, -1024, 0, 0, 0, 0, 0, 0, 0, 0, 0, -1024, 0, 0, 0, 74, 0, 0, 143, 0.0, 0.0, 0.0, 0.0, 2.0, 0.0, 0.0, 1.0, 0.0, 0.0, 1.0, 0.0, 0.0, 1.0, 0.0, 0.0, 0.0, 0, 768, 1, 66
0.0, 0.0, 103787, 0.0, -4.440544128417969, -0.2578752636909485, -116.72051239013672, -0.006342682521790266, -0.024742502719163895, -0.016032986342906952, 0.0, 0.0, 0.0, 0, 0, 0, 0, 0, -1024, 15.0, 2.0, 15.0, 2.0, 20.149999618530273, 5.0, 0, 1, 2, 3, 0, 100, -322, -264, -1103, 22, -392, -3072, -3072, -909, 0, 0, -1024, 0, 0, 0, 0, 0, 0, 0, 0, 0, -1024, 0, 0, 0, 74, 0, 0, 143, 0.0, 0.0, 0.0, 0.0, 2.0, 0.0, 0.0, 1.0, 0.0, 0.0, 1.0, 0.0, 0.0, 1.0, 0.0, 0.0, 0.0, 0, 768, 1, 66
0.0, 0.0, 103787, 0.0, -4.440544128417969, -0.2578752636909485, -116.72051239013672, -0.006342682521790266, -0.024742502719163895, -0.016032986342906952, 0.0, 0.0, 0.0, 0, 0, 0, 0, 0, -1024, 15.0, 2.0, 15.0, 2.0, 20.149999618530273, 5.0, 0, 1, 2, 3, 0, 100, -322, -258, -1106, 25, -395, -3072, -3072, -912, 0, 0, -1024, 0, 0, 0, 0, 0, 0, 0, 0, 0, -1024, 0, 0, 0, 79, 0, 0, 52, 0.0, 0.0, 0.0, 0.0, 2.0, 0.0, 0.0, 1.0, 0.0, 0.0, 1.0, 0.0, 0.0, 1.0, 0.0, 0.0, 0.0, 0, 768, 1, 65
0.0, 0.0, 103787, 0.0, -4.440544128417969, -0.2578752636909485, -116.72051239013672, -0.006342682521790266, -0.024742502719163895, -0.016032986342906952, 0.0, 0.0, 0.0, 0, 0, 0, 0, 0, -1024, 15.0, 2.0, 15.0, 2.0, 20.149999618530273, 5.0, 0, 1, 2, 3, 0, 100, -322, -258, -1106, 25, -395, -3072, -3072, -912, 0, 0, -1024, 0, 0, 0, 0, 0, 0, 0, 0, 0, -1024, 0, 0, 0, 79, 0, 0, 52, 0.0, 0.0, 0.0, 0.0, 2.0, 0.0, 0.0, 1.0, 0.0, 0.0, 1.0, 0.0, 0.0, 1.0, 0.0, 0.0, 0.0, 0, 768, 1, 65
0.0, 0.0, 105058, 0.0, -4.413527488708496, -0.21082836389541626, -116.7349853515625, 0.0001965740812011063, 0.003383365925401449, 0.013485770672559738, 0.0, 0.0, 0.0, 0, 0, 0, 0, 0, -1024, 15.0, 2.0, 15.0, 2.0, 20.149999618530273, 5.0, 0, 1, 2, 3, 0, 100, -322, -258, -1106, 25, -395, -3072, -3072, -912, 0, 0, -1024, 0, 0, 0, 0, 0, 0, 0, 0, 0, -1024, 0, 0, 0, 79, 0, 0, 52, 0.0, 0.0, 0.0, 0.0, 2.0, 0.0, 0.0, 1.0, 0.0, 0.0, 1.0, 0.0, 0.0, 1.0, 0.0, 0.0, 0.0, 0, 768, 1, 62
0.0, 0.0, 105058, 0.0, -4.413527488708496, -0.21082836389541626, -116.7349853515625, 0.0001965740812011063, 0.003383365925401449, 0.013485770672559738, 0.0, 0.0, 0.0, 0, 0, 0, 0, 0, -1024, 15.0, 2.0, 15.0, 2.0, 20.149999618530273, 5.0, 0, 1, 2, 3, 0, 100, -325, -258, -1106, 25, -2966, -3072, -3072, -912, 0, 0, -1024, 0, 0, 0, 0, 0, 0, 0, 0, 0, -1024, 0, 0, 0, 74, 0, 0, 143, 0.0, 0.0, 0.0, 0.0, 2.0, 0.0, 0.0, 1.0, 0.0, 0.0, 1.0, 0.0, 0.0, 1.0, 0.0, 0.0, 0.0, 0, 768, 1, 62
0.0, 0.0, 105058, 0.0, -4.413527488708496, -0.21082836389541626, -116.7349853515625, 0.0001965740812011063, 0.003383365925401449, 0.013485770672559738, 0.0, 0.0, 0.0, 0, 0, 0, 0, 0, -1024, 15.0, 2.0, 15.0, 2.0, 20.149999618530273, 5.0, 0, 1, 2, 3, 0, 100, -325, -258, -1106, 25, -2966, -3072, -3072, -912, 0, 0, -1024, 0, 0, 0, 0, 0, 0, 0, 0, 0, -1024, 0, 0, 0, 74, 0, 0, 143, 0.0, 0.0, 0.0, 0.0, 2.0, 0.0, 0.0, 1.0, 0.0, 0.0, 1.0, 0.0, 0.0, 1.0, 0.0, 0.0, 0.0, 0, 768, 1, 63
0.0, 0.0, 106328, 0.0, -4.438196182250977, -0.3251163363456726, -116.7487564086914, 0.0030657590832561255, 0.004750690422952175, -0.0006821444258093834, 0.0, 0.0, 0.0, 0, 0, 0, 0, 0, -1024, 15.0, 2.0, 15.0, 2.0, 20.149999618530273, 5.0, 0, 1, 2, 3, 0, 100, -325, -258, -1106, 25, -2966, -3072, -3072, -912, 0, 0, -1024, 0, 0, 0, 0, 0, 0, 0, 0, 0, -1024, 0, 0, 0, 74, 0, 0, 143, 0.0, 0.0, 0.0, 0.0, 2.0, 0.0, 0.0, 1.0, 0.0, 0.0, 1.0, 0.0, 0.0, 1.0, 0.0, 0.0, 0.0, 0, 768, 1, 63
0.0, 0.0, 106328, 0.0, -4.438196182250977, -0.3251163363456726, -116.7487564086914, 0.0030657590832561255, 0.004750690422952175, -0.0006821444258093834, 0.0, 0.0, 0.0, 0, 0, 0, 0, 0, -1024, 15.0, 2.0, 15.0, 2.0, 20.149999618530273, 5.0, 0, 1, 2, 3, 0, 100, -322, -261, -1103, 22, -395, -3072, -3072, -921, 0, 0, -1024, 0, 0, 0, 0, 0, 0, 0, 0, 0, -1024, 0, 0, 0, 79, 0, 0, 52, 0.0, 0.0, 0.0, 0.0, 2.0, 0.0, 0.0, 1.0, 0.0, 0.0, 1.0, 0.0, 0.0, 1.0, 0.0, 0.0, 0.0, 0, 768, 1, 64
0.0, 0.0, 106328, 0.0, -4.438196182250977, -0.3251163363456726, -116.7487564086914, 0.0030657590832561255, 0.004750690422952175, -0.0006821444258093834, 0.0, 0.0, 0.0, 0, 0, 0, 0, 0, -1024, 15.0, 2.0, 15.0, 2.0, 20.149999618530273, 5.0, 0, 1, 2, 3, 0, 100, -322, -261, -1103, 22, -395, -3072, -3072, -921, 0, 0, -1024, 0, 0, 0, 0, 0, 0, 0, 0, 0, -1024, 0, 0, 0, 79, 0, 0, 52, 0.0, 0.0, 0.0, 0.0, 2.0, 0.0, 0.0, 1.0, 0.0, 0.0, 1.0, 0.0, 0.0, 1.0, 0.0, 0.0, 0.0, 0, 768, 1, 64
0.0, 0.0, 107599, 0.0, -4.421741008758545, -0.2522205114364624, -116.73616027832031, 0.0027808095328509808, 0.007065713405609131, 0.007736178580671549, 0.0, 0.0, 0.0, 0, 0, 0, 0, 0, -1024, 15.0, 2.0, 15.0, 2.0, 20.149999618530273, 5.0, 0, 1, 2, 3, 0, 100, -322, -261, -1103, 22, -395, -3072, -3072, -921, 0, 0, -1024, 0, 0, 0, 0, 0, 0, 0, 0, 0, -1024, 0, 0, 0, 79, 0, 0, 52, 0.0, 0.0, 0.0, 0.0, 2.0, 0.0, 0.0, 1.0, 0.0, 0.0, 1.0, 0.0, 0.0, 1.0, 0.0, 0.0, 0.0, 0, 768, 1, 64
0.0, 0.0, 107599, 0.0, -4.421741008758545, -0.2522205114364624, -116.73616027832031, 0.0027808095328509808, 0.007065713405609131, 0.007736178580671549, 0.0, 0.0, 0.0, 0, 0, 0, 0, 0, -1024, 15.0, 2.0, 15.0, 2.0, 20.149999618530273, 5.0, 0, 1, 2, 3, 0, 100, -325, -258, -1103, -2548, -392, -3072, -3072, -918, 0, 0, -1024, 0, 0, 0, 0, 0, 0, 0, 0, 0, -1024, 0, 0, 0, 74, 0, 0, 143, 0.0, 0.0, 0.0, 0.0, 2.0, 0.0, 0.0, 1.0, 0.0, 0.0, 1.0, 0.0, 0.0, 1.0, 0.0, 0.0, 0.0, 0, 768, 1, 64
0.0, 0.0, 107599, 0.0, -4.421741008758545, -0.2522205114364624, -116.73616027832031, 0.0027808095328509808, 0.007065713405609131, 0.007736178580671549, 0.0, 0.0, 0.0, 0, 0, 0, 0, 0, -1024, 15.0, 2.0, 15.0, 2.0, 20.149999618530273, 5.0, 0, 1, 2, 3, 0, 100, -325, -258, -1103, -2548, -392, -3072, -3072, -918, 0, 0, -1024, 0, 0, 0, 0, 0, 0, 0, 0, 0, -1024, 0, 0, 0, 74, 0, 0, 143, 0.0, 0.0, 0.0, 0.0, 2.0, 0.0, 0.0, 1.0, 0.0, 0.0, 1.0, 0.0, 0.0, 1.0, 0.0, 0.0, 0.0, 0, 768, 1, 66
0.0, 0.0, 108870, 0.0, -4.400428771972656, -0.21864502131938934, -116.71749114990234, -0.0006653438904322684, 0.0013907100073993206, -0.00030895043164491653, 0.0, 0.0, 0.0, 0, 0, 0, 0, 0, -1024, 15.0, 2.0, 15.0, 2.0, 20.149999618530273, 5.0, 0, 1, 2, 3, 0, 100, -325, -258, -1103, -2548, -392, -3072, -3072, -918, 0, 0, -1024, 0, 0, 0, 0, 0, 0, 0, 0, 0, -1024, 0, 0, 0, 74, 0, 0, 143, 0.0, 0.0, 0.0, 0.0, 2.0, 0.0, 0.0, 1.0, 0.0, 0.0, 1.0, 0.0, 0.0, 1.0, 0.0, 0.0, 0.0, 0, 768, 1, 66
0.0, 0.0, 108870, 0.0, -4.400428771972656, -0.21864502131938934, -116.71749114990234, -0.0006653438904322684, 0.0013907100073993206, -0.00030895043164491653, 0.0, 0.0, 0.0, 0, 0, 0, 0, 0, -1024, 15.0, 2.0, 15.0, 2.0, 20.149999618530273, 5.0, 0, 1, 2, 3, 0, 100, -2893, -261, -1106, 22, -392, -3072, -3072, -912, 0, 0, -1024, 0, 0, 0, 0, 0, 0, 0, 0, 0, -1024, 0, 0, 0, 79, 0, 0, 52, 0.0, 0.0, 0.0, 0.0, 2.0, 0.0, 0.0, 1.0, 0.0, 0.0, 1.0, 0.0, 0.0, 1.0, 0.0, 0.0, 0.0, 0, 768, 1, 65
0.0, 0.0, 108870, 0.0, -4.400428771972656, -0.21864502131938934, -116.71749114990234, -0.0006653438904322684, 0.0013907100073993206, -0.00030895043164491653, 0.0, 0.0, 0.0, 0, 0, 0, 0, 0, -1024, 15.0, 2.0, 15.0, 2.0, 20.149999618530273, 5.0, 0, 1, 2, 3, 0, 100, -2893, -261, -1106, 22, -392, -3072, -3072, -912, 0, 0, -1024, 0, 0, 0, 0, 0, 0, 0, 0, 0, -1024, 0, 0, 0, 79, 0, 0, 52, 0.0, 0.0, 0.0, 0.0, 2.0, 0.0, 0.0, 1.0, 0.0, 0.0, 1.0, 0.0, 0.0, 1.0, 0.0, 0.0, 0.0, 0, 768, 1, 65
0.0, 0.0, 110140, 0.0, -4.414198398590088, -0.26893943548202515, -116.75165557861328, 0.0019368694629520178, 0.005763886962085962, 0.005003559868782759, 0.0, 0.0, 0.0, 0, 0, 0, 0, 0, -1024, 15.0, 2.0, 15.0, 2.0, 20.149999618530273, 5.0, 0, 1, 2, 3, 0, 100, -2893, -261, -1106, 22, -392, -3072, -3072, -912, 0, 0, -1024, 0, 0, 0, 0, 0, 0, 0, 0, 0, -1024, 0, 0, 0, 79, 0, 0, 52, 0.0, 0.0, 0.0, 0.0, 2.0, 0.0, 0.0, 1.0, 0.0, 0.0, 1.0, 0.0, 0.0, 1.0, 0.0, 0.0, 0.0, 0, 768, 1, 65
0.0, 0.0, 110140, 0.0, -4.414198398590088, -0.26893943548202515, -116.75165557861328, 0.0019368694629520178, 0.005763886962085962, 0.005003559868782759, 0.0, 0.0, 0.0, 0, 0, 0, 0, 0, -1024, 15.0, 2.0, 15.0, 2.0, 20.149999618530273, 5.0, 0, 1, 2, 3, 0, 100, -322, -261, -1106, 15, -392, -3072, -3072, -912, 0, 0, -1024, 0, 0, 0, 0, 0, 0, 0, 0, 0, -1024, 0, 0, 0, 74, 0, 0, 143, 0.0, 0.0, 0.0, 0.0, 2.0, 0.0, 0.0, 1.0, 0.0, 0.0, 1.0, 0.0, 0.0, 1.0, 0.0, 0.0, 0.0, 0, 768, 1, 65
0.0, 0.0, 110140, 0.0, -4.414198398590088, -0.26893943548202515, -116.75165557861328, 0.0019368694629520178, 0.005763886962085962, 0.005003559868782759, 0.0, 0.0, 0.0, 0, 0, 0, 0, 0, -1024, 15.0, 2.0, 15.0, 2.0, 20.149999618530273, 5.0, 0, 1, 2, 3, 0, 100, -322, -261, -1106, 15, -392, -3072, -3072, -912, 0, 0, -1024, 0, 0, 0, 0, 0, 0, 0, 0, 0, -1024, 0, 0, 0, 74, 0, 0, 143, 0.0, 0.0, 0.0, 0.0, 2.0, 0.0, 0.0, 1.0, 0.0, 0.0, 1.0, 0.0, 0.0, 1.0, 0.0, 0.0, 0.0, 0, 768, 1, 64
0.0, 0.0, 111411, 0.0, -4.41192102432251, -0.2805593013763428, -116.76876831054688, 0.0019750185310840607, 0.014162110164761543, 0.00289198593236506, 0.0, 0.0, 0.0, 0, 0, 0, 0, 0, -1024, 15.0, 2.0, 15.0, 2.0, 20.149999618530273, 5.0, 0, 1, 2, 3, 0, 100, -322, -261, -1106, 15, -392, -3072, -3072, -912, 0, 0, -1024, 0, 0, 0, 0, 0, 0, 0, 0, 0, -1024, 0, 0, 0, 74, 0, 0, 143, 0.0, 0.0, 0.0, 0.0, 2.0, 0.0, 0.0, 1.0, 0.0, 0.0, 1.0, 0.0, 0.0, 1.0, 0.0, 0.0, 0.0, 0, 768, 1, 64
0.0, 0.0, 111411, 0.0, -4.41192102432251, -0.2805593013763428, -116.76876831054688, 0.0019750185310840607, 0.014162110164761543, 0.00289198593236506, 0.0, 0.0, 0.0, 0, 0, 0, 0, 0, -1024, 15.0, 2.0, 15.0, 2.0, 20.149999618530273, 5.0, 0, 1, 2, 3, 0, 100, -325, -261, -1106, 25, -392, -3072, -3072, -912, 0, 0, -1024, 0, 0, 0, 0, 0, 0, 0, 0, 0, -1024, 0, 0, 0, 79, 0, 0, 52, 0.0, 0.0, 0.0, 0.0, 2.0, 0.0, 0.0, 1.0, 0.0, 0.0, 1.0, 0.0, 0.0, 1.0, 0.0, 0.0, 0.0, 0, 768, 1, 62
0.0, 0.0, 111411, 0.0, -4.41192102432251, -0.2805593013763428, -116.76876831054688, 0.0019750185310840607, 0.014162110164761543, 0.00289198593236506, 0.0, 0.0, 0.0, 0, 0, 0, 0, 0, -1024, 15.0, 2.0, 15.0, 2.0, 20.149999618530273, 5.0, 0, 1, 2, 3, 0, 100, -325, -261, -1106, 25, -392, -3072, -3072, -912, 0, 0, -1024, 0, 0, 0, 0, 0, 0, 0, 0, 0, -1024, 0, 0, 0, 79, 0, 0, 52, 0.0, 0.0, 0.0, 0.0, 2.0, 0.0, 0.0, 1.0, 0.0, 0.0, 1.0, 0.0, 0.0, 1.0, 0.0, 0.0, 0.0, 0, 768, 1, 62
0.0, 0.0, 112682, 0.0, -4.406107425689697, -0.2828633785247803, -116.75228118896484, -0.0010478475596755743, 0.0019410410895943642, 0.0006583733484148979, 0.0, 0.0, 0.0, 0, 0, 0, 0, 0, -1024, 15.0, 2.0, 15.0, 2.0, 20.149999618530273, 5.0, 0, 1, 2, 3, 0, 100, -325, -261, -1106, 25, -392, -3072, -3072, -912, 0, 0, -1024, 0, 0, 0, 0, 0, 0, 0, 0, 0, -1024, 0, 0, 0, 79, 0, 0, 52, 0.0, 0.0, 0.0, 0.0, 2.0, 0.0, 0.0, 1.0, 0.0, 0.0, 1.0, 0.0, 0.0, 1.0, 0.0, 0.0, 0.0, 0, 768, 1, 64
0.0, 0.0, 112682, 0.0, -4.406107425689697, -0.2828633785247803, -116.75228118896484, -0.0010478475596755743, 0.0019410410895943642, 0.0006583733484148979, 0.0, 0.0, 0.0, 0, 0, 0, 0, 0, -1024, 15.0, 2.0, 15.0, 2.0, 20.149999618530273, 5.0, 0, 1, 2, 3, 0, 100, -325, -261, -1103, 22, -395, -3072, -3072, -912, 0, 0, -1024, 0, 0, 0, 0, 0, 0, 0, 0, 0, -1024, 0, 0, 0, 74, 0, 0, 143, 0.0, 0.0, 0.0, 0.0, 2.0, 0.0, 0.0, 1.0, 0.0, 0.0, 1.0, 0.0, 0.0, 1.0, 0.0, 0.0, 0.0, 0, 768, 1, 64
0.0, 0.0, 112682, 0.0, -4.406107425689697, -0.2828633785247803, -116.75228118896484, -0.0010478475596755743, 0.0019410410895943642, 0.0006583733484148979, 0.0, 0.0, 0.0, 0, 0, 0, 0, 0, -1024, 15.0, 2.0, 15.0, 2.0, 20.149999618530273, 5.0, 0, 1, 2, 3, 0, 100, -325, -261, -1103, 22, -395, -3072, -3072, -912, 0, 0, -1024, 0, 0, 0, 0, 0, 0, 0, 0, 0, -1024, 0, 0, 0, 74, 0, 0, 143, 0.0, 0.0, 0.0, 0.0, 2.0, 0.0, 0.0, 1.0, 0.0, 0.0, 1.0, 0.0, 0.0, 1.0, 0.0, 0.0, 0.0, 0, 768, 1, 64
0.0, 0.0, 113952, 0.0, -4.427356719970703, -0.32453852891921997, -116.78036499023438, -0.0004276986583136022, -0.010205230675637722, -0.002974351402372122, 0.0, 0.0, 0.0, 0, 0, 0, 0, 0, -1024, 15.0, 2.0, 15.0, 2.0, 20.149999618530273, 5.0, 0, 1, 2, 3, 0, 100, -325, -261, -1103, 22, -395, -3072, -3072, -912, 0, 0, -1024, 0, 0, 0, 0, 0, 0, 0, 0, 0, -1024, 0, 0, 0, 74, 0, 0, 143, 0.0, 0.0, 0.0, 0.0, 2.0, 0.0, 0.0, 1.0, 0.0, 0.0, 1.0, 0.0, 0.0, 1.0, 0.0, 0.0, 0.0, 0, 768, 1, 64
0.0, 0.0, 113952, 0.0, -4.427356719970703, -0.32453852891921997, -116.78036499023438, -0.0004276986583136022, -0.010205230675637722, -0.002974351402372122, 0.0, 0.0, 0.0, 0, 0, 0, 0, 0, -1024, 15.0, 2.0, 15.0, 2.0, 20.149999618530273, 5.0, 0, 1, 2, 3, 0, 100, -322, -258, -1103, 22, -395, -3072, -3072, -915, 0, 0, -1024, 0, 0, 0, 0, 0, 0, 0, 0, 0, -1024, 0, 0, 0, 79, 0, 0, 52, 0.0, 0.0, 0.0, 0.0, 2.0, 0.0, 0.0, 1.0, 0.0, 0.0, 1.0, 0.0, 0.0, 1.0, 0.0, 0.0, 0.0, 0, 768, 1, 64
