lat,lon,sys_time,time,pitch,roll,yaw,pitch_rate,roll_rate,yaw_rate,airspeed,altitude,ground_speed,heading,roll_rate_setpoint,roll_setpoint,pitch_rate_setpoint,pitch_setpoint,throttle_setpoint,roll_kd,roll_kp,pitch_kd,pitch_kp,yaw_kd,yaw_kp,last_command_sent0,last_command_sent1,last_command_sent2,last_command_sent3,battery_level1,battery_level2,ch1in,ch2in,ch3in,ch4in,ch5in,ch6in,ch7in,ch8in,ch1out,ch2out,ch3out,ch4out,ch5out,ch6out,ch7out,ch8out,camera_status,yaw_rate_setpoint,heading_setpoint,altitude_setpoint,flap_setpoint,wireless_connection,autopilot_active,gps_status,path_checksum,waypoint_count,waypoint_index,path_following,roll_ki,pitch_ki,yaw_ki,heading_kd,heading_kp,heading_ki,altitude_kd,altitude_kp,altitude_ki,throttle_kd,throttle_kp,throttle_ki,flap_kd,flap_kp,flap_ki,path_gain,orbit_gain,autonomousLevel,startup_error_codes,startupSettings,RSSI
0,15,2,15,2,20.1499996185,5,0,1,2,3,0,100,-322,-261,-1106,19,-392,-3072,-3072,-918,0,0,-1024,0,0,0,0,0,0,0,0,0,-1024,0,0,0,74,0,0,143,0,-100,0,0,0,0,0,0,0,0,0,0,0,0,0,0,0,0,0,0,0,0,0,0,0,0,0,0,0,0,0,0,0,0,0,0,0,0,0
0,15,2,15,2,20.1499996185,5,0,1,2,3,0,100,-322,-261,-1106,19,-392,-3072,-3072,-918,0,0,-1024,0,0,0,0,0,0,0,0,0,-1024,0,0,0,74,0,0,143,0,0,0,0,2,0,0,1,0,0,1,0,0,1,0,0,0,0,768,1,59,0,0,0,0,0,0,0,0,0,0,0,0,0,0,0,0,0,0
0,0,63126,0,-4.3893680573,-0.239067018,-116.849861145,-0.0016833987,-0.0136666968,-0.0039245379,0,0,0,0,0,0,0,0,-1024,15,2,15,2,20.1499996185,5,0,1,2,3,0,100,-322,-261,-1106,19,-392,-3072,-3072,-918,0,0,-1024,0,0,0,0,0,0,0,0,0,-1024,0,0,0,74,0,0,143,0,0,0,0,2,0,0,1,0,0,1,0,0,1,0,0,0,0,768,1,59
0,0,63126,0,-4.3893680573,-0.239067018,-116.849861145,-0.0016833987,-0.0136666968,-0.0039245379,0,0,0,0,0,0,0,0,-1024,15,2,15,2,20.1499996185,5,0,1,2,3,0,100,-322,-258,-1103,22,-392,-3072,-3072,-912,0,0,-1024,0,0,0,0,0,0,0,0,0,-1024,0,0,0,79,0,0,52,0,0,0,0,2,0,0,1,0,0,1,0,0,1,0,0,0,0,768,1,67
0,0,63126,0,-4.3893680573,-0.239067018,-116.849861145,-0.0016833987,-0.0136666968,-0.0039245379,0,0,0,0,0,0,0,0,-1024,15,2,15,2,20.1499996185,5,0,1,2,3,0,100,-322,-258,-1103,22,-392,-3072,-3072,-912,0,0,-1024,0,0,0,0,0,0,0,0,0,-1024,0,0,0,79,0,0,52,0,0,0,0,2,0,0,1,0,0,1,0,0,1,0,0,0,0,768,1,67
0,0,64397,0,-4.3946752548,-0.2639925778,-116.8656768799,0.0037468569,0.0081506921,0.0094069717,0,0,0,0,0,0,0,0,-1024,15,2,15,2,20.1499996185,5,0,1,2,3,0,100,-322,-258,-1103,22,-392,-3072,-3072,-912,0,0,-1024,0,0,0,0,0,0,0,0,0,-1024,0,0,0,79,0,0,52,0,0,0,0,2,0,0,1,0,0,1,0,0,1,0,0,0,0,768,1,67
0,0,64397,0,-4.3946752548,-0.2639925778,-116.8656768799,0.0037468569,0.0081506921,0.0094069717,0,0,0,0,0,0,0,0,-1024,15,2,15,2,20.1499996185,5,0,1,2,3,0,100,-322,-261,-1106,22,-2960,-3072,-3072,-909,0,0,-1024,0,0,0,0,0,0,0,0,0,-1024,0,0,0,74,0,0,143,0,0,0,0,2,0,0,1,0,0,1,0,0,1,0,0,0,0,768,1,67
0,0,64397,0,-4.3946752548,-0.2639925778,-116.8656768799,0.0037468569,0.0081506921,0.0094069717,0,0,0,0,0,0,0,0,-1024,15,2,15,2,20.1499996185,5,0,1,2,3,0,100,-322,-261,-1106,22,-2960,-3072,-3072,-909,0,0,-1024,0,0,0,0,0,0,0,0,0,-1024,0,0,0,74,0,0,143,0,0,0,0,2,0,0,1,0,0,1,0,0,1,0,0,0,0,768,1,67
0,0,65667,0,-4.4161376953,-0.295689553,-116.8872909546,-0.0024467066,-0.002109143,-0.0019180137,0,0,0,0,0,0,0,0,-1024,15,2,15,2,20.1499996185,5,0,1,2,3,0,100,-322,-261,-1106,22,-2960,-3072,-3072,-909,0,0,-1024,0,0,0,0,0,0,0,0,0,-1024,0,0,0,74,0,0,143,0,0,0,0,2,0,0,1,0,0,1,0,0,1,0,0,0,0,768,1,67
0,0,65667,0,-4.4161376953,-0.295689553,-116.8872909546,-0.0024467066,-0.002109143,-0.0019180137,0,0,0,0,0,0,0,0,-1024,15,2,15,2,20.1499996185,5,0,1,2,3,0,100,-322,-261,-1103,22,-395,-3072,-3072,-912,0,0,-1024,0,0,0,0,0,0,0,0,0,-1024,0,0,0,79,0,0,52,0,0,0,0,2,0,0,1,0,0,1,0,0,1,0,0,0,0,768,1,67
0,0,65667,0,-4.4161376953,-0.295689553,-116.8872909546,-0.0024467066,-0.002109143,-0.0019180137,0,0,0,0,0,0,0,0,-1024,15,2,15,2,20.1499996185,5,0,1,2,3,0,100,-322,-261,-1103,22,-395,-3072,-3072,-912,0,0,-1024,0,0,0,0,0,0,0,0,0,-1024,0,0,0,79,0,0,52,0,0,0,0,2,0,0,1,0,0,1,0,0,1,0,0,0,0,768,1,67
0,0,66938,0,-4.4147210121,-0.2724964917,-116.8888015747,-0.0001059797,0.0023623868,0.0012218226,0,0,0,0,0,0,0,0,-1024,15,2,15,2,20.1499996185,5,0,1,2,3,0,100,-322,-261,-1103,22,-395,-3072,-3072,-912,0,0,-1024,0,0,0,0,0,0,0,0,0,-1024,0,0,0,79,0,0,52,0,0,0,0,2,0,0,1,0,0,1,0,0,1,0,0,0,0,768,1,67
0,0,66938,0,-4.4147210121,-0.2724964917,-116.8888015747,-0.0001059797,0.0023623868,0.0012218226,0,0,0,0,0,0,0,0,-1024,15,2,15,2,20.1499996185,5,0,1,2,3,0,100,-322,-264,-1106,-2545,-392,-3072,-3072,-912,0,0,-1024,0,0,0,0,0,0,0,0,0,-1024,0,0,0,74,0,0,143,0,0,0,0,2,0,0,1,0,0,1,0,0,1,0,0,0,0,768,1,67
0,0,66938,0,-4.4147210121,-0.2724964917,-116.8888015747,-0.0001059797,0.0023623868,0.0012218226,0,0,0,0,0,0,0,0,-1024,15,2,15,2,20.1499996185,5,0,1,2,3,0,100,-322,-264,-1106,-2545,-392,-3072,-3072,-912,0,0,-1024,0,0,0,0,0,0,0,0,0,-1024,0,0,0,74,0,0,143,0,0,0,0,2,0,0,1,0,0,1,0,0,1,0,0,0,0,768,1,68
0,0,68209,0,-4.4222583771,-0.2467054874,-116.8606948853,0.0022320526,0.0022260738,0.0019671496,0,0,0,0,0,0,0,0,-1024,15,2,15,2,20.1499996185,5,0,1,2,3,0,100,-322,-264,-1106,-2545,-392,-3072,-3072,-912,0,0,-1024,0,0,0,0,0,0,0,0,0,-1024,0,0,0,74,0,0,143,0,0,0,0,2,0,0,1,0,0,1,0,0,1,0,0,0,0,768,1,68
0,0,68209,0,-4.4222583771,-0.2467054874,-116.8606948853,0.0022320526,0.0022260738,0.0019671496,0,0,0,0,0,0,0,0,-1024,15,2,15,2,20.1499996185,5,0,1,2,3,0,100,-322,-2826,-1103,25,-398,-3072,-3072,-912,0,0,-1024,0,0,0,0,0,0,0,0,0,-1024,0,0,0,79,0,0,52,0,0,0,0,2,0,0,1,0,0,1,0,0,1,0,0,0,0,768,1,68
0,0,68209,0,-4.4222583771,-0.2467054874,-116.8606948853,0.0022320526,0.0022260738,0.0019671496,0,0,0,0,0,0,0,0,-1024,15,2,15,2,20.1499996185,5,0,1,2,3,0,100,-322,-2826,-1103,25,-398,-3072,-3072,-912,0,0,-1024,0,0,0,0,0,0,0,0,0,-1024,0,0,0,79,0,0,52,0,0,0,0,2,0,0,1,0,0,1,0,0,1,0,0,0,0,768,1,68
0,0,69479,0,-4.4200992584,-0.2728208601,-116.8699417114,7.2635943070054E-005,0.0006127404,0.0022158145,0,0,0,0,0,0,0,0,-1024,15,2,15,2,20.1499996185,5,0,1,2,3,0,100,-322,-2826,-1103,25,-398,-3072,-3072,-912,0,0,-1024,0,0,0,0,0,0,0,0,0,-1024,0,0,0,79,0,0,52,0,0,0,0,2,0,0,1,0,0,1,0,0,1,0,0,0,0,768,1,68
0,0,69479,0,-4.4200992584,-0.2728208601,-116.8699417114,7.2635943070054E-005,0.0006127404,0.0022158145,0,0,0,0,0,0,0,0,-1024,15,2,15,2,20.1499996185,5,0,1,2,3,0,100,-322,-261,-1106,22,-395,-3072,-3072,-912,0,0,-1024,0,0,0,0,0,0,0,0,0,-1024,0,0,0,74,0,0,143,0,0,0,0,2,0,0,1,0,0,1,0,0,1,0,0,0,0,768,1,68
0,0,69479,0,-4.4200992584,-0.2728208601,-116.8699417114,7.2635943070054E-005,0.0006127404,0.0022158145,0,0,0,0,0,0,0,0,-1024,15,2,15,2,20.1499996185,5,0,1,2,3,0,100,-322,-261,-1106,22,-395,-3072,-3072,-912,0,0,-1024,0,0,0,0,0,0,0,0,0,-1024,0,0,0,74,0,0,143,0,0,0,0,2,0,0,1,0,0,1,0,0,1,0,0,0,0,768,1,70
0,0,70750,0,-4.4016928673,-0.2238639444,-116.8517456055,0.0011997051,0.0023121638,0.0011240011,0,0,0,0,0,0,0,0,-1024,15,2,15,2,20.1499996185,5,0,1,2,3,0,100,-322,-261,-1106,22,-395,-3072,-3072,-912,0,0,-1024,0,0,0,0,0,0,0,0,0,-1024,0,0,0,74,0,0,143,0,0,0,0,2,0,0,1,0,0,1,0,0,1,0,0,0,0,768,1,70
0,0,70750,0,-4.4016928673,-0.2238639444,-116.8517456055,0.0011997051,0.0023121638,0.0011240011,0,0,0,0,0,0,0,0,-1024,15,2,15,2,20.1499996185,5,0,1,2,3,0,100,-325,-261,-1106,22,-392,-3072,-3072,-912,0,0,-1024,0,0,0,0,0,0,0,0,0,-1024,0,0,0,79,0,0,52,0,0,0,0,2,0,0,1,0,0,1,0,0,1,0,0,0,0,768,1,71
0,0,70750,0,-4.4016928673,-0.2238639444,-116.8517456055,0.0011997051,0.0023121638,0.0011240011,0,0,0,0,0,0,0,0,-1024,15,2,15,2,20.1499996185,5,0,1,2,3,0,100,-325,-261,-1106,22,-392,-3072,-3072,-912,0,0,-1024,0,0,0,0,0,0,0,0,0,-1024,0,0,0,79,0,0,52,0,0,0,0,2,0,0,1,0,0,1,0,0,1,0,0,0,0,768,1,71
0,0,72021,0,-4.4141135216,-0.2511563599,-116.8590698242,-0.0005121135,-0.0014411928,-0.0008562785,0,0,0,0,0,0,0,0,-1024,15,2,15,2,20.1499996185,5,0,1,2,3,0,100,-325,-261,-1106,22,-392,-3072,-3072,-912,0,0,-1024,0,0,0,0,0,0,0,0,0,-1024,0,0,0,79,0,0,52,0,0,0,0,2,0,0,1,0,0,1,0,0,1,0,0,0,0,768,1,72
0,0,72021,0,-4.4141135216,-0.2511563599,-116.8590698242,-0.0005121135,-0.0014411928,-0.0008562785,0,0,0,0,0,0,0,0,-1024,15,2,15,2,20.1499996185,5,0,1,2,3,0,100,-322,-258,-1103,19,-392,-3072,-3072,-912,0,0,-1024,0,0,0,0,0,0,0,0,0,-1024,0,0,0,74,0,0,143,0,0,0,0,2,0,0,1,0,0,1,0,0,1,0,0,0,0,768,1,72
0,0,72021,0,-4.4141135216,-0.2511563599,-116.8590698242,-0.0005121135,-0.0014411928,-0.0008562785,0,0,0,0,0,0,0,0,-1024,15,2,15,2,20.1499996185,5,0,1,2,3,0,100,-322,-258,-1103,19,-392,-3072,-3072,-912,0,0,-1024,0,0,0,0,0,0,0,0,0,-1024,0,0,0,74,0,0,143,0,0,0,0,2,0,0,1,0,0,1,0,0,1,0,0,0,0,768,1,67
0,0,73291,0,-4.3966908455,-0.2162927687,-116.8455810547,-0.0026437277,-0.0095327664,-0.0036321259,0,0,0,0,0,0,0,0,-1024,15,2,15,2,20.1499996185,5,0,1,2,3,0,100,-322,-258,-1103,19,-392,-3072,-3072,-912,0,0,-1024,0,0,0,0,0,0,0,0,0,-1024,0,0,0,74,0,0,143,0,0,0,0,2,0,0,1,0,0,1,0,0,1,0,0,0,0,768,1,67
0,0,73291,0,-4.3966908455,-0.2162927687,-116.8455810547,-0.0026437277,-0.0095327664,-0.0036321259,0,0,0,0,0,0,0,0,-1024,15,2,15,2,20.1499996185,5,0,1,2,3,0,100,-322,-258,-1103,25,-392,-3072,-3072,-912,0,0,-1024,0,0,0,0,0,0,0,0,0,-1024,0,0,0,79,0,0,52,0,0,0,0,2,0,0,1,0,0,1,0,0,1,0,0,0,0,768,1,73
0,0,73291,0,-4.3966908455,-0.2162927687,-116.8455810547,-0.0026437277,-0.0095327664,-0.0036321259,0,0,0,0,0,0,0,0,-1024,15,2,15,2,20.1499996185,5,0,1,2,3,0,100,-322,-258,-1103,25,-392,-3072,-3072,-912,0,0,-1024,0,0,0,0,0,0,0,0,0,-1024,0,0,0,79,0,0,52,0,0,0,0,2,0,0,1,0,0,1,0,0,1,0,0,0,0,768,1,73
0,0,74562,0,-4.4073271751,-0.2462362498,-116.8517303467,-0.0029533475,-0.0035229642,-0.0007627755,0,0,0,0,0,0,0,0,-1024,15,2,15,2,20.1499996185,5,0,1,2,3,0,100,-322,-258,-1103,25,-392,-3072,-3072,-912,0,0,-1024,0,0,0,0,0,0,0,0,0,-1024,0,0,0,79,0,0,52,0,0,0,0,2,0,0,1,0,0,1,0,0,1,0,0,0,0,768,1,68
0,0,74562,0,-4.4073271751,-0.2462362498,-116.8517303467,-0.0029533475,-0.0035229642,-0.0007627755,0,0,0,0,0,0,0,0,-1024,15,2,15,2,20.1499996185,5,0,1,2,3,0,100,-322,-258,-1103,22,-2963,-3072,-3072,-912,0,0,-1024,0,0,0,0,0,0,0,0,0,-1024,0,0,0,74,0,0,143,0,0,0,0,2,0,0,1,0,0,1,0,0,1,0,0,0,0,768,1,68
0,0,74562,0,-4.4073271751,-0.2462362498,-116.8517303467,-0.0029533475,-0.0035229642,-0.0007627755,0,0,0,0,0,0,0,0,-1024,15,2,15,2,20.1499996185,5,0,1,2,3,0,100,-322,-258,-1103,22,-2963,-3072,-3072,-912,0,0,-1024,0,0,0,0,0,0,0,0,0,-1024,0,0,0,74,0,0,143,0,0,0,0,2,0,0,1,0,0,1,0,0,1,0,0,0,0,768,1,64
0,0,75833,0,-4.412522316,-0.2621597946,-116.8537521362,0.0012264163,0.0015305988,0.0017619678,0,0,0,0,0,0,0,0,-1024,15,2,15,2,20.1499996185,5,0,1,2,3,0,100,-322,-258,-1103,22,-2963,-3072,-3072,-912,0,0,-1024,0,0,0,0,0,0,0,0,0,-1024,0,0,0,74,0,0,143,0,0,0,0,2,0,0,1,0,0,1,0,0,1,0,0,0,0,768,1,64
0,0,75833,0,-4.412522316,-0.2621597946,-116.8537521362,0.0012264163,0.0015305988,0.0017619678,0,0,0,0,0,0,0,0,-1024,15,2,15,2,20.1499996185,5,0,1,2,3,0,100,-322,-261,-1103,22,-392,-3072,-3072,-912,0,0,-1024,0,0,0,0,0,0,0,0,0,-1024,0,0,0,79,0,0,52,0,0,0,0,2,0,0,1,0,0,1,0,0,1,0,0,0,0,768,1,68
0,0,75833,0,-4.412522316,-0.2621597946,-116.8537521362,0.0012264163,0.0015305988,0.0017619678,0,0,0,0,0,0,0,0,-1024,15,2,15,2,20.1499996185,5,0,1,2,3,0,100,-322,-261,-1103,22,-392,-3072,-3072,-912,0,0,-1024,0,0,0,0,0,0,0,0,0,-1024,0,0,0,79,0,0,52,0,0,0,0,2,0,0,1,0,0,1,0,0,1,0,0,0,0,768,1,68
0,0,77103,0,-4.4146347046,-0.26720801,-116.8535766602,-0.0016988593,-0.001670775,0.001540222,0,0,0,0,0,0,0,0,-1024,15,2,15,2,20.1499996185,5,0,1,2,3,0,100,-322,-261,-1103,22,-392,-3072,-3072,-912,0,0,-1024,0,0,0,0,0,0,0,0,0,-1024,0,0,0,79,0,0,52,0,0,0,0,2,0,0,1,0,0,1,0,0,1,0,0,0,0,768,1,66
0,0,77103,0,-4.4146347046,-0.26720801,-116.8535766602,-0.0016988593,-0.001670775,0.001540222,0,0,0,0,0,0,0,0,-1024,15,2,15,2,20.1499996185,5,0,1,2,3,0,100,-322,-261,-1103,-2552,-392,-3072,-3072,-912,0,0,-1024,0,0,0,0,0,0,0,0,0,-1024,0,0,0,74,0,0,143,0,0,0,0,2,0,0,1,0,0,1,0,0,1,0,0,0,0,768,1,66
0,0,77103,0,-4.4146347046,-0.26720801,-116.8535766602,-0.0016988593,-0.001670775,0.001540222,0,0,0,0,0,0,0,0,-1024,15,2,15,2,20.1499996185,5,0,1,2,3,0,100,-322,-261,-1103,-2552,-392,-3072,-3072,-912,0,0,-1024,0,0,0,0,0,0,0,0,0,-1024,0,0,0,74,0,0,143,0,0,0,0,2,0,0,1,0,0,1,0,0,1,0,0,0,0,768,1,65
0,0,78374,0,-4.4180955887,-0.3034179509,-116.8713989258,0.0003661714,-0.0004517175,-0.0008016289,0,0,0,0,0,0,0,0,-1024,15,2,15,2,20.1499996185,5,0,1,2,3,0,100,-322,-261,-1103,-2552,-392,-3072,-3072,-912,0,0,-1024,0,0,0,0,0,0,0,0,0,-1024,0,0,0,74,0,0,143,0,0,0,0,2,0,0,1,0,0,1,0,0,1,0,0,0,0,768,1,65
0,0,78374,0,-4.4180955887,-0.3034179509,-116.8713989258,0.0003661714,-0.0004517175,-0.0008016289,0,0,0,0,0,0,0,0,-1024,15,2,15,2,20.1499996185,5,0,1,2,3,0,100,-322,-2826,-1106,22,-395,-3072,-3072,-912,0,0,-1024,0,0,0,0,0,0,0,0,0,-1024,0,0,0,79,0,0,52,0,0,0,0,2,0,0,1,0,0,1,0,0,1,0,0,0,0,768,1,64
0,0,78374,0,-4.4180955887,-0.3034179509,-116.8713989258,0.0003661714,-0.0004517175,-0.0008016289,0,0,0,0,0,0,0,0,-1024,15,2,15,2,20.1499996185,5,0,1,2,3,0,100,-322,-2826,-1106,22,-395,-3072,-3072,-912,0,0,-1024,0,0,0,0,0,0,0,0,0,-1024,0,0,0,79,0,0,52,0,0,0,0,2,0,0,1,0,0,1,0,0,1,0,0,0,0,768,1,64
0,0,79645,0,-4.4277105331,-0.269435972,-116.8501205444,0.0002528321,0.0010682908,0.0018596766,0,0,0,0,0,0,0,0,-1024,15,2,15,2,20.1499996185,5,0,1,2,3,0,100,-322,-2826,-1106,22,-395,-3072,-3072,-912,0,0,-1024,0,0,0,0,0,0,0,0,0,-1024,0,0,0,79,0,0,52,0,0,0,0,2,0,0,1,0,0,1,0,0,1,0,0,0,0,768,1,66
0,0,79645,0,-4.4277105331,-0.269435972,-116.8501205444,0.0002528321,0.0010682908,0.0018596766,0,0,0,0,0,0,0,0,-1024,15,2,15,2,20.1499996185,5,0,1,2,3,0,100,-322,-261,-1106,15,-392,-3072,-3072,-912,0,0,-1024,0,0,0,0,0,0,0,0,0,-1024,0,0,0,74,0,0,143,0,0,0,0,2,0,0,1,0,0,1,0,0,1,0,0,0,0,768,1,66
0,0,79645,0,-4.4277105331,-0.269435972,-116.8501205444,0.0002528321,0.0010682908,0.0018596766,0,0,0,0,0,0,0,0,-1024,15,2,15,2,20.1499996185,5,0,1,2,3,0,100,-322,-261,-1106,15,-392,-3072,-3072,-912,0,0,-1024,0,0,0,0,0,0,0,0,0,-1024,0,0,0,74,0,0,143,0,0,0,0,2,0,0,1,0,0,1,0,0,1,0,0,0,0,768,1,65
0,0,80915,0,-4.4173350334,-0.2954265773,-116.838218689,0.0009822052,-0.0036511598,-0.0023164907,0,0,0,0,0,0,0,0,-1024,15,2,15,2,20.1499996185,5,0,1,2,3,0,100,-322,-261,-1106,15,-392,-3072,-3072,-912,0,0,-1024,0,0,0,0,0,0,0,0,0,-1024,0,0,0,74,0,0,143,0,0,0,0,2,0,0,1,0,0,1,0,0,1,0,0,0,0,768,1,65
0,0,80915,0,-4.4173350334,-0.2954265773,-116.838218689,0.0009822052,-0.0036511598,-0.0023164907,0,0,0,0,0,0,0,0,-1024,15,2,15,2,20.1499996185,5,0,1,2,3,0,100,-322,-261,-1103,22,-392,-3072,-3072,-909,0,0,-1024,0,0,0,0,0,0,0,0,0,-1024,0,0,0,79,0,0,52,0,0,0,0,2,0,0,1,0,0,1,0,0,1,0,0,0,0,768,1,63
0,0,80915,0,-4.4173350334,-0.2954265773,-116.838218689,0.0009822052,-0.0036511598,-0.0023164907,0,0,0,0,0,0,0,0,-1024,15,2,15,2,20.1499996185,5,0,1,2,3,0,100,-322,-261,-1103,22,-392,-3072,-3072,-909,0,0,-1024,0,0,0,0,0,0,0,0,0,-1024,0,0,0,79,0,0,52,0,0,0,0,2,0,0,1,0,0,1,0,0,1,0,0,0,0,768,1,63
0,0,82186,0,-4.4186315536,-0.2951257825,-116.826210022,0.0003377057,0.0022316086,0.0018649693,0,0,0,0,0,0,0,0,-1024,15,2,15,2,20.1499996185,5,0,1,2,3,0,100,-322,-261,-1103,22,-392,-3072,-3072,-909,0,0,-1024,0,0,0,0,0,0,0,0,0,-1024,0,0,0,79,0,0,52,0,0,0,0,2,0,0,1,0,0,1,0,0,1,0,0,0,0,768,1,65
0,0,82186,0,-4.4186315536,-0.2951257825,-116.826210022,0.0003377057,0.0022316086,0.0018649693,0,0,0,0,0,0,0,0,-1024,15,2,15,2,20.1499996185,5,0,1,2,3,0,100,-322,-264,-1106,22,-392,-3072,-3072,-912,0,0,-1024,0,0,0,0,0,0,0,0,0,-1024,0,0,0,74,0,0,143,0,0,0,0,2,0,0,1,0,0,1,0,0,1,0,0,0,0,768,1,65
0,0,82186,0,-4.4186315536,-0.2951257825,-116.826210022,0.0003377057,0.0022316086,0.0018649693,0,0,0,0,0,0,0,0,-1024,15,2,15,2,20.1499996185,5,0,1,2,3,0,100,-322,-264,-1106,22,-392,-3072,-3072,-912,0,0,-1024,0,0,0,0,0,0,0,0,0,-1024,0,0,0,74,0,0,143,0,0,0,0,2,0,0,1,0,0,1,0,0,1,0,0,0,0,768,1,64
0,0,83457,0,-4.4285159111,-0.2947256267,-116.8210372925,0.0016573244,0.0069431271,0.0022310794,0,0,0,0,0,0,0,0,-1024,15,2,15,2,20.1499996185,5,0,1,2,3,0,100,-322,-264,-1106,22,-392,-3072,-3072,-912,0,0,-1024,0,0,0,0,0,0,0,0,0,-1024,0,0,0,74,0,0,143,0,0,0,0,2,0,0,1,0,0,1,0,0,1,0,0,0,0,768,1,64
0,0,83457,0,-4.4285159111,-0.2947256267,-116.8210372925,0.0016573244,0.0069431271,0.0022310794,0,0,0,0,0,0,0,0,-1024,15,2,15,2,20.1499996185,5,0,1,2,3,0,100,-322,-261,-1106,25,-392,-3072,-3072,-912,0,0,-1024,0,0,0,0,0,0,0,0,0,-1024,0,0,0,79,0,0,52,0,0,0,0,2,0,0,1,0,0,1,0,0,1,0,0,0,0,768,1,64
0,0,83457,0,-4.4285159111,-0.2947256267,-116.8210372925,0.0016573244,0.0069431271,0.0022310794,0,0,0,0,0,0,0,0,-1024,15,2,15,2,20.1499996185,5,0,1,2,3,0,100,-322,-261,-1106,25,-392,-3072,-3072,-912,0,0,-1024,0,0,0,0,0,0,0,0,0,-1024,0,0,0,79,0,0,52,0,0,0,0,2,0,0,1,0,0,1,0,0,1,0,0,0,0,768,1,64
0,0,84727,0,-4.4101161957,-0.2752267122,-116.813331604,-0.0005952297,0.0039998256,0.0024361706,0,0,0,0,0,0,0,0,-1024,15,2,15,2,20.1499996185,5,0,1,2,3,0,100,-322,-261,-1106,25,-392,-3072,-3072,-912,0,0,-1024,0,0,0,0,0,0,0,0,0,-1024,0,0,0,79,0,0,52,0,0,0,0,2,0,0,1,0,0,1,0,0,1,0,0,0,0,768,1,65
0,0,84727,0,-4.4101161957,-0.2752267122,-116.813331604,-0.0005952297,0.0039998256,0.0024361706,0,0,0,0,0,0,0,0,-1024,15,2,15,2,20.1499996185,5,0,1,2,3,0,100,-322,-261,-1106,22,-2960,-3072,-3072,-912,0,0,-1024,0,0,0,0,0,0,0,0,0,-1024,0,0,0,74,0,0,143,0,0,0,0,2,0,0,1,0,0,1,0,0,1,0,0,0,0,768,1,65
0,0,84727,0,-4.4101161957,-0.2752267122,-116.813331604,-0.0005952297,0.0039998256,0.0024361706,0,0,0,0,0,0,0,0,-1024,15,2,15,2,20.1499996185,5,0,1,2,3,0,100,-322,-261,-1106,22,-2960,-3072,-3072,-912,0,0,-1024,0,0,0,0,0,0,0,0,0,-1024,0,0,0,74,0,0,143,0,0,0,0,2,0,0,1,0,0,1,0,0,1,0,0,0,0,768,1,64
0,0,85998,0,-4.4346494675,-0.3318906724,-116.824836731,-0.0030999724,-0.0079025934,-0.0097316038,0,0,0,0,0,0,0,0,-1024,15,2,15,2,20.1499996185,5,0,1,2,3,0,100,-322,-261,-1106,22,-2960,-3072,-3072,-912,0,0,-1024,0,0,0,0,0,0,0,0,0,-1024,0,0,0,74,0,0,143,0,0,0,0,2,0,0,1,0,0,1,0,0,1,0,0,0,0,768,1,64
0,0,85998,0,-4.4346494675,-0.3318906724,-116.824836731,-0.0030999724,-0.0079025934,-0.0097316038,0,0,0,0,0,0,0,0,-1024,15,2,15,2,20.1499996185,5,0,1,2,3,0,100,-322,-261,-1106,25,-392,-3072,-3072,-912,0,0,-1024,0,0,0,0,0,0,0,0,0,-1024,0,0,0,79,0,0,52,0,0,0,0,2,0,0,1,0,0,1,0,0,1,0,0,0,0,768,1,66
0,0,85998,0,-4.4346494675,-0.3318906724,-116.824836731,-0.0030999724,-0.0079025934,-0.0097316038,0,0,0,0,0,0,0,0,-1024,15,2,15,2,20.1499996185,5,0,1,2,3,0,100,-322,-261,-1106,25,-392,-3072,-3072,-912,0,0,-1024,0,0,0,0,0,0,0,0,0,-1024,0,0,0,79,0,0,52,0,0,0,0,2,0,0,1,0,0,1,0,0,1,0,0,0,0,768,1,66
0,0,87268,0,-4.438958168,-0.3209815919,-116.7936859131,0.0054082591,0.0092807095,0.0014723116,0,0,0,0,0,0,0,0,-1024,15,2,15,2,20.1499996185,5,0,1,2,3,0,100,-322,-261,-1106,25,-392,-3072,-3072,-912,0,0,-1024,0,0,0,0,0,0,0,0,0,-1024,0,0,0,79,0,0,52,0,0,0,0,2,0,0,1,0,0,1,0,0,1,0,0,0,0,768,1,66
0,0,87268,0,-4.438958168,-0.3209815919,-116.7936859131,0.0054082591,0.0092807095,0.0014723116,0,0,0,0,0,0,0,0,-1024,15,2,15,2,20.1499996185,5,0,1,2,3,0,100,-322,-261,-1103,-2548,-392,-3072,-3072,-912,0,0,-1024,0,0,0,0,0,0,0,0,0,-1024,0,0,0,74,0,0,143,0,0,0,0,2,0,0,1,0,0,1,0,0,1,0,0,0,0,768,1,66
0,0,87268,0,-4.438958168,-0.3209815919,-116.7936859131,0.0054082591,0.0092807095,0.0014723116,0,0,0,0,0,0,0,0,-1024,15,2,15,2,20.1499996185,5,0,1,2,3,0,100,-322,-261,-1103,-2548,-392,-3072,-3072,-912,0,0,-1024,0,0,0,0,0,0,0,0,0,-1024,0,0,0,74,0,0,143,0,0,0,0,2,0,0,1,0,0,1,0,0,1,0,0,0,0,768,1,63
0,0,88539,0,-4.4133496284,-0.2539959252,-116.7749481201,0.0018610521,0.004299643,-0.0009377101,0,0,0,0,0,0,0,0,-1024,15,2,15,2,20.1499996185,5,0,1,2,3,0,100,-322,-261,-1103,-2548,-392,-3072,-3072,-912,0,0,-1024,0,0,0,0,0,0,0,0,0,-1024,0,0,0,74,0,0,143,0,0,0,0,2,0,0,1,0,0,1,0,0,1,0,0,0,0,768,1,63
0,0,88539,0,-4.4133496284,-0.2539959252,-116.7749481201,0.0018610521,0.004299643,-0.0009377101,0,0,0,0,0,0,0,0,-1024,15,2,15,2,20.1499996185,5,0,1,2,3,0,100,-2886,-258,-1106,25,-395,-3072,-3072,-921,0,0,-1024,0,0,0,0,0,0,0,0,0,-1024,0,0,0,79,0,0,52,0,0,0,0,2,0,0,1,0,0,1,0,0,1,0,0,0,0,768,1,62
0,0,88539,0,-4.4133496284,-0.2539959252,-116.7749481201,0.0018610521,0.004299643,-0.0009377101,0,0,0,0,0,0,0,0,-1024,15,2,15,2,20.1499996185,5,0,1,2,3,0,100,-2886,-258,-1106,25,-395,-3072,-3072,-921,0,0,-1024,0,0,0,0,0,0,0,0,0,-1024,0,0,0,79,0,0,52,0,0,0,0,2,0,0,1,0,0,1,0,0,1,0,0,0,0,768,1,62
0,0,89810,0,-4.4226326942,-0.2789276838,-116.7843475342,0.0026284494,0.0089235157,0.0011831201,0,0,0,0,0,0,0,0,-1024,15,2,15,2,20.1499996185,5,0,1,2,3,0,100,-2886,-258,-1106,25,-395,-3072,-3072,-921,0,0,-1024,0,0,0,0,0,0,0,0,0,-1024,0,0,0,79,0,0,52,0,0,0,0,2,0,0,1,0,0,1,0,0,1,0,0,0,0,768,1,70
0,0,89810,0,-4.4226326942,-0.2789276838,-116.7843475342,0.0026284494,0.0089235157,0.0011831201,0,0,0,0,0,0,0,0,-1024,15,2,15,2,20.1499996185,5,0,1,2,3,0,100,-322,-258,-1103,22,-392,-3072,-3072,-912,0,0,-1024,0,0,0,0,0,0,0,0,0,-1024,0,0,0,74,0,0,143,0,0,0,0,2,0,0,1,0,0,1,0,0,1,0,0,0,0,768,1,70
0,0,89810,0,-4.4226326942,-0.2789276838,-116.7843475342,0.0026284494,0.0089235157,0.0011831201,0,0,0,0,0,0,0,0,-1024,15,2,15,2,20.1499996185,5,0,1,2,3,0,100,-322,-258,-1103,22,-392,-3072,-3072,-912,0,0,-1024,0,0,0,0,0,0,0,0,0,-1024,0,0,0,74,0,0,143,0,0,0,0,2,0,0,1,0,0,1,0,0,1,0,0,0,0,768,1,65
0,0,91080,0,-4.4138212204,-0.2965173125,-116.7693557739,0.0014901754,0.0024438417,-0.0010874718,0,0,0,0,0,0,0,0,-1024,15,2,15,2,20.1499996185,5,0,1,2,3,0,100,-322,-258,-1103,22,-392,-3072,-3072,-912,0,0,-1024,0,0,0,0,0,0,0,0,0,-1024,0,0,0,74,0,0,143,0,0,0,0,2,0,0,1,0,0,1,0,0,1,0,0,0,0,768,1,65
0,0,91080,0,-4.4138212204,-0.2965173125,-116.7693557739,0.0014901754,0.0024438417,-0.0010874718,0,0,0,0,0,0,0,0,-1024,15,2,15,2,20.1499996185,5,0,1,2,3,0,100,-322,-258,-1103,22,-395,-3072,-3072,-918,0,0,-1024,0,0,0,0,0,0,0,0,0,-1024,0,0,0,79,0,0,52,0,0,0,0,2,0,0,1,0,0,1,0,0,1,0,0,0,0,768,1,63
0,0,91080,0,-4.4138212204,-0.2965173125,-116.7693557739,0.0014901754,0.0024438417,-0.0010874718,0,0,0,0,0,0,0,0,-1024,15,2,15,2,20.1499996185,5,0,1,2,3,0,100,-322,-258,-1103,22,-395,-3072,-3072,-918,0,0,-1024,0,0,0,0,0,0,0,0,0,-1024,0,0,0,79,0,0,52,0,0,0,0,2,0,0,1,0,0,1,0,0,1,0,0,0,0,768,1,63
0,0,92351,0,-4.4134864807,-0.2906686068,-116.7752990723,-0.0029453237,-0.0114127118,-0.0037605651,0,0,0,0,0,0,0,0,-1024,15,2,15,2,20.1499996185,5,0,1,2,3,0,100,-322,-258,-1103,22,-395,-3072,-3072,-918,0,0,-1024,0,0,0,0,0,0,0,0,0,-1024,0,0,0,79,0,0,52,0,0,0,0,2,0,0,1,0,0,1,0,0,1,0,0,0,0,768,1,66
0,0,92351,0,-4.4134864807,-0.2906686068,-116.7752990723,-0.0029453237,-0.0114127118,-0.0037605651,0,0,0,0,0,0,0,0,-1024,15,2,15,2,20.1499996185,5,0,1,2,3,0,100,-322,-264,-1103,22,-395,-3072,-3072,-912,0,0,-1024,0,0,0,0,0,0,0,0,0,-1024,0,0,0,74,0,0,143,0,0,0,0,2,0,0,1,0,0,1,0,0,1,0,0,0,0,768,1,66
0,0,92351,0,-4.4134864807,-0.2906686068,-116.7752990723,-0.0029453237,-0.0114127118,-0.0037605651,0,0,0,0,0,0,0,0,-1024,15,2,15,2,20.1499996185,5,0,1,2,3,0,100,-322,-264,-1103,22,-395,-3072,-3072,-912,0,0,-1024,0,0,0,0,0,0,0,0,0,-1024,0,0,0,74,0,0,143,0,0,0,0,2,0,0,1,0,0,1,0,0,1,0,0,0,0,768,1,66
0,0,93622,0,-4.4213647842,-0.2913851142,-116.7591247559,0.0015858765,0.0028571705,0.0033711346,0,0,0,0,0,0,0,0,-1024,15,2,15,2,20.1499996185,5,0,1,2,3,0,100,-322,-264,-1103,22,-395,-3072,-3072,-912,0,0,-1024,0,0,0,0,0,0,0,0,0,-1024,0,0,0,74,0,0,143,0,0,0,0,2,0,0,1,0,0,1,0,0,1,0,0,0,0,768,1,66
0,0,93622,0,-4.4213647842,-0.2913851142,-116.7591247559,0.0015858765,0.0028571705,0.0033711346,0,0,0,0,0,0,0,0,-1024,15,2,15,2,20.1499996185,5,0,1,2,3,0,100,-322,-258,-1103,15,-395,-3072,-3072,-912,0,0,-1024,0,0,0,0,0,0,0,0,0,-1024,0,0,0,79,0,0,52,0,0,0,0,2,0,0,1,0,0,1,0,0,1,0,0,0,0,768,1,65
0,0,93622,0,-4.4213647842,-0.2913851142,-116.7591247559,0.0015858765,0.0028571705,0.0033711346,0,0,0,0,0,0,0,0,-1024,15,2,15,2,20.1499996185,5,0,1,2,3,0,100,-322,-258,-1103,15,-395,-3072,-3072,-912,0,0,-1024,0,0,0,0,0,0,0,0,0,-1024,0,0,0,79,0,0,52,0,0,0,0,2,0,0,1,0,0,1,0,0,1,0,0,0,0,768,1,65
0,0,94892,0,-4.4185004234,-0.2742812634,-116.7548370361,-0.0004443333,-0.0009961557,0.0020025787,0,0,0,0,0,0,0,0,-1024,15,2,15,2,20.1499996185,5,0,1,2,3,0,100,-322,-258,-1103,15,-395,-3072,-3072,-912,0,0,-1024,0,0,0,0,0,0,0,0,0,-1024,0,0,0,79,0,0,52,0,0,0,0,2,0,0,1,0,0,1,0,0,1,0,0,0,0,768,1,62
0,0,94892,0,-4.4185004234,-0.2742812634,-116.7548370361,-0.0004443333,-0.0009961557,0.0020025787,0,0,0,0,0,0,0,0,-1024,15,2,15,2,20.1499996185,5,0,1,2,3,0,100,-325,-261,-1106,22,-2966,-3072,-3072,-912,0,0,-1024,0,0,0,0,0,0,0,0,0,-1024,0,0,0,74,0,0,143,0,0,0,0,2,0,0,1,0,0,1,0,0,1,0,0,0,0,768,1,62
0,0,94892,0,-4.4185004234,-0.2742812634,-116.7548370361,-0.0004443333,-0.0009961557,0.0020025787,0,0,0,0,0,0,0,0,-1024,15,2,15,2,20.1499996185,5,0,1,2,3,0,100,-325,-261,-1106,22,-2966,-3072,-3072,-912,0,0,-1024,0,0,0,0,0,0,0,0,0,-1024,0,0,0,74,0,0,143,0,0,0,0,2,0,0,1,0,0,1,0,0,1,0,0,0,0,768,1,62
0,0,96163,0,-4.431874752,-0.3132661581,-116.7661361694,-0.0025765989,-0.0061418572,-0.0007821489,0,0,0,0,0,0,0,0,-1024,15,2,15,2,20.1499996185,5,0,1,2,3,0,100,-325,-261,-1106,22,-2966,-3072,-3072,-912,0,0,-1024,0,0,0,0,0,0,0,0,0,-1024,0,0,0,74,0,0,143,0,0,0,0,2,0,0,1,0,0,1,0,0,1,0,0,0,0,768,1,62
0,0,96163,0,-4.431874752,-0.3132661581,-116.7661361694,-0.0025765989,-0.0061418572,-0.0007821489,0,0,0,0,0,0,0,0,-1024,15,2,15,2,20.1499996185,5,0,1,2,3,0,100,-322,-258,-1103,22,-395,-3072,-3072,-912,0,0,-1024,0,0,0,0,0,0,0,0,0,-1024,0,0,0,79,0,0,52,0,0,0,0,2,0,0,1,0,0,1,0,0,1,0,0,0,0,768,1,60
0,0,96163,0,-4.431874752,-0.3132661581,-116.7661361694,-0.0025765989,-0.0061418572,-0.0007821489,0,0,0,0,0,0,0,0,-1024,15,2,15,2,20.1499996185,5,0,1,2,3,0,100,-322,-258,-1103,22,-395,-3072,-3072,-912,0,0,-1024,0,0,0,0,0,0,0,0,0,-1024,0,0,0,79,0,0,52,0,0,0,0,2,0,0,1,0,0,1,0,0,1,0,0,0,0,768,1,60
0,0,97434,0,-4.4124131203,-0.2363392562,-116.7369842529,-0.0033502234,-0.0021131085,0.0033584917,0,0,0,0,0,0,0,0,-1024,15,2,15,2,20.1499996185,5,0,1,2,3,0,100,-322,-258,-1103,22,-395,-3072,-3072,-912,0,0,-1024,0,0,0,0,0,0,0,0,0,-1024,0,0,0,79,0,0,52,0,0,0,0,2,0,0,1,0,0,1,0,0,1,0,0,0,0,768,1,62
0,0,97434,0,-4.4124131203,-0.2363392562,-116.7369842529,-0.0033502234,-0.0021131085,0.0033584917,0,0,0,0,0,0,0,0,-1024,15,2,15,2,20.1499996185,5,0,1,2,3,0,100,-325,-261,-1103,-2545,-392,-3072,-3072,-918,0,0,-1024,0,0,0,0,0,0,0,0,0,-1024,0,0,0,74,0,0,143,0,0,0,0,2,0,0,1,0,0,1,0,0,1,0,0,0,0,768,1,62
0,0,97434,0,-4.4124131203,-0.2363392562,-116.7369842529,-0.0033502234,-0.0021131085,0.0033584917,0,0,0,0,0,0,0,0,-1024,15,2,15,2,20.1499996185,5,0,1,2,3,0,100,-325,-261,-1103,-2545,-392,-3072,-3072,-918,0,0,-1024,0,0,0,0,0,0,0,0,0,-1024,0,0,0,74,0,0,143,0,0,0,0,2,0,0,1,0,0,1,0,0,1,0,0,0,0,768,1,63
0,0,98704,0,-4.4054508209,-0.2359739542,-116.7423400879,0.0040688338,0.0189893246,0.0007541617,0,0,0,0,0,0,0,0,-1024,15,2,15,2,20.1499996185,5,0,1,2,3,0,100,-325,-261,-1103,-2545,-392,-3072,-3072,-918,0,0,-1024,0,0,0,0,0,0,0,0,0,-1024,0,0,0,74,0,0,143,0,0,0,0,2,0,0,1,0,0,1,0,0,1,0,0,0,0,768,1,63
0,0,98704,0,-4.4054508209,-0.2359739542,-116.7423400879,0.0040688338,0.0189893246,0.0007541617,0,0,0,0,0,0,0,0,-1024,15,2,15,2,20.1499996185,5,0,1,2,3,0,100,-2890,-261,-1106,25,-392,-3072,-3072,-912,0,0,-1024,0,0,0,0,0,0,0,0,0,-1024,0,0,0,79,0,0,52,0,0,0,0,2,0,0,1,0,0,1,0,0,1,0,0,0,0,768,1,62
0,0,98704,0,-4.4054508209,-0.2359739542,-116.7423400879,0.0040688338,0.0189893246,0.0007541617,0,0,0,0,0,0,0,0,-1024,15,2,15,2,20.1499996185,5,0,1,2,3,0,100,-2890,-261,-1106,25,-392,-3072,-3072,-912,0,0,-1024,0,0,0,0,0,0,0,0,0,-1024,0,0,0,79,0,0,52,0,0,0,0,2,0,0,1,0,0,1,0,0,1,0,0,0,0,768,1,62
0,0,99975,0,-4.4251694679,-0.272706598,-116.7430038452,0.0040309001,0.0182391796,0.0132082831,0,0,0,0,0,0,0,0,-1024,15,2,15,2,20.1499996185,5,0,1,2,3,0,100,-2890,-261,-1106,25,-392,-3072,-3072,-912,0,0,-1024,0,0,0,0,0,0,0,0,0,-1024,0,0,0,79,0,0,52,0,0,0,0,2,0,0,1,0,0,1,0,0,1,0,0,0,0,768,1,63
0,0,99975,0,-4.4251694679,-0.272706598,-116.7430038452,0.0040309001,0.0182391796,0.0132082831,0,0,0,0,0,0,0,0,-1024,15,2,15,2,20.1499996185,5,0,1,2,3,0,100,-322,-261,-1106,22,-395,-3072,-3072,-912,0,0,-1024,0,0,0,0,0,0,0,0,0,-1024,0,0,0,74,0,0,143,0,0,0,0,2,0,0,1,0,0,1,0,0,1,0,0,0,0,768,1,63
0,0,99975,0,-4.4251694679,-0.272706598,-116.7430038452,0.0040309001,0.0182391796,0.0132082831,0,0,0,0,0,0,0,0,-1024,15,2,15,2,20.1499996185,5,0,1,2,3,0,100,-322,-261,-1106,22,-395,-3072,-3072,-912,0,0,-1024,0,0,0,0,0,0,0,0,0,-1024,0,0,0,74,0,0,143,0,0,0,0,2,0,0,1,0,0,1,0,0,1,0,0,0,0,768,1,60
0,0,101246,0,-4.4156084061,-0.2840364277,-116.7457427979,0.0004598573,0.0028257133,0.0030334408,0,0,0,0,0,0,0,0,-1024,15,2,15,2,20.1499996185,5,0,1,2,3,0,100,-322,-261,-1106,22,-395,-3072,-3072,-912,0,0,-1024,0,0,0,0,0,0,0,0,0,-1024,0,0,0,74,0,0,143,0,0,0,0,2,0,0,1,0,0,1,0,0,1,0,0,0,0,768,1,60
0,0,101246,0,-4.4156084061,-0.2840364277,-116.7457427979,0.0004598573,0.0028257133,0.0030334408,0,0,0,0,0,0,0,0,-1024,15,2,15,2,20.1499996185,5,0,1,2,3,0,100,-322,-258,-1106,25,-395,-3072,-3072,-912,0,0,-1024,0,0,0,0,0,0,0,0,0,-1024,0,0,0,79,0,0,52,0,0,0,0,2,0,0,1,0,0,1,0,0,1,0,0,0,0,768,1,67
0,0,101246,0,-4.4156084061,-0.2840364277,-116.7457427979,0.0004598573,0.0028257133,0.0030334408,0,0,0,0,0,0,0,0,-1024,15,2,15,2,20.1499996185,5,0,1,2,3,0,100,-322,-258,-1106,25,-395,-3072,-3072,-912,0,0,-1024,0,0,0,0,0,0,0,0,0,-1024,0,0,0,79,0,0,52,0,0,0,0,2,0,0,1,0,0,1,0,0,1,0,0,0,0,768,1,67
0,0,102516,0,-4.4182982445,-0.2749651074,-116.7585525513,0.0051966654,0.0136789922,0.0113951024,0,0,0,0,0,0,0,0,-1024,15,2,15,2,20.1499996185,5,0,1,2,3,0,100,-322,-258,-1106,25,-395,-3072,-3072,-912,0,0,-1024,0,0,0,0,0,0,0,0,0,-1024,0,0,0,79,0,0,52,0,0,0,0,2,0,0,1,0,0,1,0,0,1,0,0,0,0,768,1,65
0,0,102516,0,-4.4182982445,-0.2749651074,-116.7585525513,0.0051966654,0.0136789922,0.0113951024,0,0,0,0,0,0,0,0,-1024,15,2,15,2,20.1499996185,5,0,1,2,3,0,100,-322,-264,-1103,22,-392,-3072,-3072,-909,0,0,-1024,0,0,0,0,0,0,0,0,0,-1024,0,0,0,74,0,0,143,0,0,0,0,2,0,0,1,0,0,1,0,0,1,0,0,0,0,768,1,65
0,0,102516,0,-4.4182982445,-0.2749651074,-116.7585525513,0.0051966654,0.0136789922,0.0113951024,0,0,0,0,0,0,0,0,-1024,15,2,15,2,20.1499996185,5,0,1,2,3,0,100,-322,-264,-1103,22,-392,-3072,-3072,-909,0,0,-1024,0,0,0,0,0,0,0,0,0,-1024,0,0,0,74,0,0,143,0,0,0,0,2,0,0,1,0,0,1,0,0,1,0,0,0,0,768,1,66
0,0,103787,0,-4.4405441284,-0.2578752637,-116.7205123901,-0.0063426825,-0.0247425027,-0.0160329863,0,0,0,0,0,0,0,0,-1024,15,2,15,2,20.1499996185,5,0,1,2,3,0,100,-322,-264,-1103,22,-392,-3072,-3072,-909,0,0,-1024,0,0,0,0,0,0,0,0,0,-1024,0,0,0,74,0,0,143,0,0,0,0,2,0,0,1,0,0,1,0,0,1,0,0,0,0,768,1,66
0,0,103787,0,-4.4405441284,-0.2578752637,-116.7205123901,-0.0063426825,-0.0247425027,-0.0160329863,0,0,0,0,0,0,0,0,-1024,15,2,15,2,20.1499996185,5,0,1,2,3,0,100,-322,-258,-1106,25,-395,-3072,-3072,-912,0,0,-1024,0,0,0,0,0,0,0,0,0,-1024,0,0,0,79,0,0,52,0,0,0,0,2,0,0,1,0,0,1,0,0,1,0,0,0,0,768,1,65
0,0,103787,0,-4.4405441284,-0.2578752637,-116.7205123901,-0.0063426825,-0.0247425027,-0.0160329863,0,0,0,0,0,0,0,0,-1024,15,2,15,2,20.1499996185,5,0,1,2,3,0,100,-322,-258,-1106,25,-395,-3072,-3072,-912,0,0,-1024,0,0,0,0,0,0,0,0,0,-1024,0,0,0,79,0,0,52,0,0,0,0,2,0,0,1,0,0,1,0,0,1,0,0,0,0,768,1,65
0,0,105058,0,-4.4135274887,-0.2108283639,-116.7349853516,0.0001965741,0.0033833659,0.0134857707,0,0,0,0,0,0,0,0,-1024,15,2,15,2,20.1499996185,5,0,1,2,3,0,100,-322,-258,-1106,25,-395,-3072,-3072,-912,0,0,-1024,0,0,0,0,0,0,0,0,0,-1024,0,0,0,79,0,0,52,0,0,0,0,2,0,0,1,0,0,1,0,0,1,0,0,0,0,768,1,62
0,0,105058,0,-4.4135274887,-0.2108283639,-116.7349853516,0.0001965741,0.0033833659,0.0134857707,0,0,0,0,0,0,0,0,-1024,15,2,15,2,20.1499996185,5,0,1,2,3,0,100,-325,-258,-1106,25,-2966,-3072,-3072,-912,0,0,-1024,0,0,0,0,0,0,0,0,0,-1024,0,0,0,74,0,0,143,0,0,0,0,2,0,0,1,0,0,1,0,0,1,0,0,0,0,768,1,62
0,0,105058,0,-4.4135274887,-0.2108283639,-116.7349853516,0.0001965741,0.0033833659,0.0134857707,0,0,0,0,0,0,0,0,-1024,15,2,15,2,20.1499996185,5,0,1,2,3,0,100,-325,-258,-1106,25,-2966,-3072,-3072,-912,0,0,-1024,0,0,0,0,0,0,0,0,0,-1024,0,0,0,74,0,0,143,0,0,0,0,2,0,0,1,0,0,1,0,0,1,0,0,0,0,768,1,63
0,0,106328,0,-4.4381961823,-0.3251163363,-116.7487564087,0.0030657591,0.0047506904,-0.0006821444,0,0,0,0,0,0,0,0,-1024,15,2,15,2,20.1499996185,5,0,1,2,3,0,100,-325,-258,-1106,25,-2966,-3072,-3072,-912,0,0,-1024,0,0,0,0,0,0,0,0,0,-1024,0,0,0,74,0,0,143,0,0,0,0,2,0,0,1,0,0,1,0,0,1,0,0,0,0,768,1,63
0,0,106328,0,-4.4381961823,-0.3251163363,-116.7487564087,0.0030657591,0.0047506904,-0.0006821444,0,0,0,0,0,0,0,0,-1024,15,2,15,2,20.1499996185,5,0,1,2,3,0,100,-322,-261,-1103,22,-395,-3072,-3072,-921,0,0,-1024,0,0,0,0,0,0,0,0,0,-1024,0,0,0,79,0,0,52,0,0,0,0,2,0,0,1,0,0,1,0,0,1,0,0,0,0,768,1,64
0,0,106328,0,-4.4381961823,-0.3251163363,-116.7487564087,0.0030657591,0.0047506904,-0.0006821444,0,0,0,0,0,0,0,0,-1024,15,2,15,2,20.1499996185,5,0,1,2,3,0,100,-322,-261,-1103,22,-395,-3072,-3072,-921,0,0,-1024,0,0,0,0,0,0,0,0,0,-1024,0,0,0,79,0,0,52,0,0,0,0,2,0,0,1,0,0,1,0,0,1,0,0,0,0,768,1,64
0,0,107599,0,-4.4217410088,-0.2522205114,-116.7361602783,0.0027808095,0.0070657134,0.0077361786,0,0,0,0,0,0,0,0,-1024,15,2,15,2,20.1499996185,5,0,1,2,3,0,100,-322,-261,-1103,22,-395,-3072,-3072,-921,0,0,-1024,0,0,0,0,0,0,0,0,0,-1024,0,0,0,79,0,0,52,0,0,0,0,2,0,0,1,0,0,1,0,0,1,0,0,0,0,768,1,64
0,0,107599,0,-4.4217410088,-0.2522205114,-116.7361602783,0.0027808095,0.0070657134,0.0077361786,0,0,0,0,0,0,0,0,-1024,15,2,15,2,20.1499996185,5,0,1,2,3,0,100,-325,-258,-1103,-2548,-392,-3072,-3072,-918,0,0,-1024,0,0,0,0,0,0,0,0,0,-1024,0,0,0,74,0,0,143,0,0,0,0,2,0,0,1,0,0,1,0,0,1,0,0,0,0,768,1,64
0,0,107599,0,-4.4217410088,-0.2522205114,-116.7361602783,0.0027808095,0.0070657134,0.0077361786,0,0,0,0,0,0,0,0,-1024,15,2,15,2,20.1499996185,5,0,1,2,3,0,100,-325,-258,-1103,-2548,-392,-3072,-3072,-918,0,0,-1024,0,0,0,0,0,0,0,0,0,-1024,0,0,0,74,0,0,143,0,0,0,0,2,0,0,1,0,0,1,0,0,1,0,0,0,0,768,1,66
0,0,108870,0,-4.400428772,-0.2186450213,-116.7174911499,-0.0006653439,0.00139071,-0.0003089504,0,0,0,0,0,0,0,0,-1024,15,2,15,2,20.1499996185,5,0,1,2,3,0,100,-325,-258,-1103,-2548,-392,-3072,-3072,-918,0,0,-1024,0,0,0,0,0,0,0,0,0,-1024,0,0,0,74,0,0,143,0,0,0,0,2,0,0,1,0,0,1,0,0,1,0,0,0,0,768,1,66
0,0,108870,0,-4.400428772,-0.2186450213,-116.7174911499,-0.0006653439,0.00139071,-0.0003089504,0,0,0,0,0,0,0,0,-1024,15,2,15,2,20.1499996185,5,0,1,2,3,0,100,-2893,-261,-1106,22,-392,-3072,-3072,-912,0,0,-1024,0,0,0,0,0,0,0,0,0,-1024,0,0,0,79,0,0,52,0,0,0,0,2,0,0,1,0,0,1,0,0,1,0,0,0,0,768,1,65
0,0,108870,0,-4.400428772,-0.2186450213,-116.7174911499,-0.0006653439,0.00139071,-0.0003089504,0,0,0,0,0,0,0,0,-1024,15,2,15,2,20.1499996185,5,0,1,2,3,0,100,-2893,-261,-1106,22,-392,-3072,-3072,-912,0,0,-1024,0,0,0,0,0,0,0,0,0,-1024,0,0,0,79,0,0,52,0,0,0,0,2,0,0,1,0,0,1,0,0,1,0,0,0,0,768,1,65
0,0,110140,0,-4.4141983986,-0.2689394355,-116.7516555786,0.0019368695,0.005763887,0.0050035599,0,0,0,0,0,0,0,0,-1024,15,2,15,2,20.1499996185,5,0,1,2,3,0,100,-2893,-261,-1106,22,-392,-3072,-3072,-912,0,0,-1024,0,0,0,0,0,0,0,0,0,-1024,0,0,0,79,0,0,52,0,0,0,0,2,0,0,1,0,0,1,0,0,1,0,0,0,0,768,1,65
0,0,110140,0,-4.4141983986,-0.2689394355,-116.7516555786,0.0019368695,0.005763887,0.0050035599,0,0,0,0,0,0,0,0,-1024,15,2,15,2,20.1499996185,5,0,1,2,3,0,100,-322,-261,-1106,15,-392,-3072,-3072,-912,0,0,-1024,0,0,0,0,0,0,0,0,0,-1024,0,0,0,74,0,0,143,0,0,0,0,2,0,0,1,0,0,1,0,0,1,0,0,0,0,768,1,65
0,0,110140,0,-4.4141983986,-0.2689394355,-116.7516555786,0.0019368695,0.005763887,0.0050035599,0,0,0,0,0,0,0,0,-1024,15,2,15,2,20.1499996185,5,0,1,2,3,0,100,-322,-261,-1106,15,-392,-3072,-3072,-912,0,0,-1024,0,0,0,0,0,0,0,0,0,-1024,0,0,0,74,0,0,143,0,0,0,0,2,0,0,1,0,0,1,0,0,1,0,0,0,0,768,1,64
0,0,111411,0,-4.4119210243,-0.2805593014,-116.7687683105,0.0019750185,0.0141621102,0.0028919859,0,0,0,0,0,0,0,0,-1024,15,2,15,2,20.1499996185,5,0,1,2,3,0,100,-322,-261,-1106,15,-392,-3072,-3072,-912,0,0,-1024,0,0,0,0,0,0,0,0,0,-1024,0,0,0,74,0,0,143,0,0,0,0,2,0,0,1,0,0,1,0,0,1,0,0,0,0,768,1,64
0,0,111411,0,-4.4119210243,-0.2805593014,-116.7687683105,0.0019750185,0.0141621102,0.0028919859,0,0,0,0,0,0,0,0,-1024,15,2,15,2,20.1499996185,5,0,1,2,3,0,100,-325,-261,-1106,25,-392,-3072,-3072,-912,0,0,-1024,0,0,0,0,0,0,0,0,0,-1024,0,0,0,79,0,0,52,0,0,0,0,2,0,0,1,0,0,1,0,0,1,0,0,0,0,768,1,62
0,0,111411,0,-4.4119210243,-0.2805593014,-116.7687683105,0.0019750185,0.0141621102,0.0028919859,0,0,0,0,0,0,0,0,-1024,15,2,15,2,20.1499996185,5,0,1,2,3,0,100,-325,-261,-1106,25,-392,-3072,-3072,-912,0,0,-1024,0,0,0,0,0,0,0,0,0,-1024,0,0,0,79,0,0,52,0,0,0,0,2,0,0,1,0,0,1,0,0,1,0,0,0,0,768,1,62
0,0,112682,0,-4.4061074257,-0.2828633785,-116.752281189,-0.0010478476,0.0019410411,0.0006583733,0,0,0,0,0,0,0,0,-1024,15,2,15,2,20.1499996185,5,0,1,2,3,0,100,-325,-261,-1106,25,-392,-3072,-3072,-912,0,0,-1024,0,0,0,0,0,0,0,0,0,-1024,0,0,0,79,0,0,52,0,0,0,0,2,0,0,1,0,0,1,0,0,1,0,0,0,0,768,1,64
0,0,112682,0,-4.4061074257,-0.2828633785,-116.752281189,-0.0010478476,0.0019410411,0.0006583733,0,0,0,0,0,0,0,0,-1024,15,2,15,2,20.1499996185,5,0,1,2,3,0,100,-325,-261,-1103,22,-395,-3072,-3072,-912,0,0,-1024,0,0,0,0,0,0,0,0,0,-1024,0,0,0,74,0,0,143,0,0,0,0,2,0,0,1,0,0,1,0,0,1,0,0,0,0,768,1,64
0,0,112682,0,-4.4061074257,-0.2828633785,-116.752281189,-0.0010478476,0.0019410411,0.0006583733,0,0,0,0,0,0,0,0,-1024,15,2,15,2,20.1499996185,5,0,1,2,3,0,100,-325,-261,-1103,22,-395,-3072,-3072,-912,0,0,-1024,0,0,0,0,0,0,0,0,0,-1024,0,0,0,74,0,0,143,0,0,0,0,2,0,0,1,0,0,1,0,0,1,0,0,0,0,768,1,64
0,0,113952,0,-4.42735672,-0.3245385289,-116.7803649902,-0.0004276987,-0.0102052307,-0.0029743514,0,0,0,0,0,0,0,0,-1024,15,2,15,2,20.1499996185,5,0,1,2,3,0,100,-325,-261,-1103,22,-395,-3072,-3072,-912,0,0,-1024,0,0,0,0,0,0,0,0,0,-1024,0,0,0,74,0,0,143,0,0,0,0,2,0,0,1,0,0,1,0,0,1,0,0,0,0,768,1,64
0,0,113952,0,-4.42735672,-0.3245385289,-116.7803649902,-0.0004276987,-0.0102052307,-0.0029743514,0,0,0,0,0,0,0,0,-1024,15,2,15,2,20.1499996185,5,0,1,2,3,0,100,-322,-258,-1103,22,-395,-3072,-3072,-915,0,0,-1024,0,0,0,0,0,0,0,0,0,-1024,0,0,0,79,0,0,52,0,0,0,0,2,0,0,1,0,0,1,0,0,1,0,0,0,0,768,1,64
0,0,113952,0,-4.42735672,-0.3245385289,-116.7803649902,-0.0004276987,-0.0102052307,-0.0029743514,0,0,0,0,0,0,0,0,-1024,15,2,15,2,20.1499996185,5,0,1,2,3,0,100,-322,-258,-1103,22,-395,-3072,-3072,-915,0,0,-1024,0,0,0,0,0,0,0,0,0,-1024,0,0,0,79,0,0,52,0,0,0,0,2,0,0,1,0,0,1,0,0,1,0,0,0,0,768,1,64
0,0,115223,0,-4.4158315659,-0.2639461458,-116.7550964355,0.0001610932,0.0019114749,0.0034339863,0,0,0,0,0,0,0,0,-1024,15,2,15,2,20.1499996185,5,0,1,2,3,0,100,-322,-258,-1103,22,-395,-3072,-3072,-915,0,0,-1024,0,0,0,0,0,0,0,0,0,-1024,0,0,0,79,0,0,52,0,0,0,0,2,0,0,1,0,0,1,0,0,1,0,0,0,0,768,1,65
0,0,115223,0,-4.4158315659,-0.2639461458,-116.7550964355,0.0001610932,0.0019114749,0.0034339863,0,0,0,0,0,0,0,0,-1024,15,2,15,2,20.1499996185,5,0,1,2,3,0,100,-322,-261,-1103,22,-392,-3072,-3072,-912,0,0,-1024,0,0,0,0,0,0,0,0,0,-1024,0,0,0,74,0,0,143,0,0,0,0,2,0,0,1,0,0,1,0,0,1,0,0,0,0,768,1,65
0,0,115223,0,-4.4158315659,-0.2639461458,-116.7550964355,0.0001610932,0.0019114749,0.0034339863,0,0,0,0,0,0,0,0,-1024,15,2,15,2,20.1499996185,5,0,1,2,3,0,100,-322,-261,-1103,22,-392,-3072,-3072,-912,0,0,-1024,0,0,0,0,0,0,0,0,0,-1024,0,0,0,74,0,0,143,0,0,0,0,2,0,0,1,0,0,1,0,0,1,0,0,0,0,768,1,64
0,0,116493,0,-4.4150133133,-0.2774038613,-116.7487030029,-0.0007728587,-0.0068987524,-0.0022393437,0,0,0,0,0,0,0,0,-1024,15,2,15,2,20.1499996185,5,0,1,2,3,0,100,-322,-261,-1103,22,-392,-3072,-3072,-912,0,0,-1024,0,0,0,0,0,0,0,0,0,-1024,0,0,0,74,0,0,143,0,0,0,0,2,0,0,1,0,0,1,0,0,1,0,0,0,0,768,1,64
0,0,116493,0,-4.4150133133,-0.2774038613,-116.7487030029,-0.0007728587,-0.0068987524,-0.0022393437,0,0,0,0,0,0,0,0,-1024,15,2,15,2,20.1499996185,5,0,1,2,3,0,100,-322,-261,-1106,15,-392,-3072,-3072,-28054,0,0,-1024,0,0,0,0,0,0,0,0,0,-1024,0,0,0,79,0,0,52,0,0,0,0,2,0,0,1,0,0,1,0,0,1,0,0,0,0,768,1,66
0,0,116493,0,-4.4150133133,-0.2774038613,-116.7487030029,-0.0007728587,-0.0068987524,-0.0022393437,0,0,0,0,0,0,0,0,-1024,15,2,15,2,20.1499996185,5,0,1,2,3,0,100,-322,-261,-1106,15,-392,-3072,-3072,-28054,0,0,-1024,0,0,0,0,0,0,0,0,0,-1024,0,0,0,79,0,0,52,0,0,0,0,2,0,0,1,0,0,1,0,0,1,0,0,0,0,768,1,66
0,0,117764,0,-4.4253115654,-0.2923388183,-116.7555236816,-0.0026803771,-0.0053221229,0.0037853764,0,0,0,0,0,0,0,0,-1024,15,2,15,2,20.1499996185,5,0,1,2,3,0,100,-322,-261,-1106,15,-392,-3072,-3072,-28054,0,0,-1024,0,0,0,0,0,0,0,0,0,-1024,0,0,0,79,0,0,52,0,0,0,0,2,0,0,1,0,0,1,0,0,1,0,0,0,0,768,1,66
0,0,117764,0,-4.4253115654,-0.2923388183,-116.7555236816,-0.0026803771,-0.0053221229,0.0037853764,0,0,0,0,0,0,0,0,-1024,15,2,15,2,20.1499996185,5,0,1,2,3,0,100,-322,-2832,-1106,22,-395,-3072,-3072,-918,0,0,-1024,0,0,0,0,0,0,0,0,0,-1024,0,0,0,74,0,0,143,0,0,0,0,2,0,0,1,0,0,1,0,0,1,0,0,0,0,768,1,66
0,0,117764,0,-4.4253115654,-0.2923388183,-116.7555236816,-0.0026803771,-0.0053221229,0.0037853764,0,0,0,0,0,0,0,0,-1024,15,2,15,2,20.1499996185,5,0,1,2,3,0,100,-322,-2832,-1106,22,-395,-3072,-3072,-918,0,0,-1024,0,0,0,0,0,0,0,0,0,-1024,0,0,0,74,0,0,143,0,0,0,0,2,0,0,1,0,0,1,0,0,1,0,0,0,0,768,1,65
0,0,119035,0,-4.4451761246,-0.3644028306,-116.7784118652,0.0009183566,0.0022783224,0.0003351425,0,0,0,0,0,0,0,0,-1024,15,2,15,2,20.1499996185,5,0,1,2,3,0,100,-322,-2832,-1106,22,-395,-3072,-3072,-918,0,0,-1024,0,0,0,0,0,0,0,0,0,-1024,0,0,0,74,0,0,143,0,0,0,0,2,0,0,1,0,0,1,0,0,1,0,0,0,0,768,1,65
0,0,119035,0,-4.4451761246,-0.3644028306,-116.7784118652,0.0009183566,0.0022783224,0.0003351425,0,0,0,0,0,0,0,0,-1024,15,2,15,2,20.1499996185,5,0,1,2,3,0,100,-322,-258,-28251,25,-395,-3072,-3072,-915,0,0,-1024,0,0,0,0,0,0,0,0,0,-1024,0,0,0,79,0,0,52,0,0,0,0,2,0,0,1,0,0,1,0,0,1,0,0,0,0,768,1,64
0,0,119035,0,-4.4451761246,-0.3644028306,-116.7784118652,0.0009183566,0.0022783224,0.0003351425,0,0,0,0,0,0,0,0,-1024,15,2,15,2,20.1499996185,5,0,1,2,3,0,100,-322,-258,-28251,25,-395,-3072,-3072,-915,0,0,-1024,0,0,0,0,0,0,0,0,0,-1024,0,0,0,79,0,0,52,0,0,0,0,2,0,0,1,0,0,1,0,0,1,0,0,0,0,768,1,64
0,0,120305,0,-4.4343318939,-0.3032874763,-116.7550125122,0.0040699975,0.0097380746,0.0034899521,0,0,0,0,0,0,0,0,-1024,15,2,15,2,20.1499996185,5,0,1,2,3,0,100,-322,-258,-28251,25,-395,-3072,-3072,-915,0,0,-1024,0,0,0,0,0,0,0,0,0,-1024,0,0,0,79,0,0,52,0,0,0,0,2,0,0,1,0,0,1,0,0,1,0,0,0,0,768,1,62
0,0,120305,0,-4.4343318939,-0.3032874763,-116.7550125122,0.0040699975,0.0097380746,0.0034899521,0,0,0,0,0,0,0,0,-1024,15,2,15,2,20.1499996185,5,0,1,2,3,0,100,-322,-261,-1106,25,-392,-3072,-3072,-912,0,0,-1024,0,0,0,0,0,0,0,0,0,-1024,0,0,0,74,0,0,143,0,0,0,0,2,0,0,1,0,0,1,0,0,1,0,0,0,0,768,1,62
0,0,120305,0,-4.4343318939,-0.3032874763,-116.7550125122,0.0040699975,0.0097380746,0.0034899521,0,0,0,0,0,0,0,0,-1024,15,2,15,2,20.1499996185,5,0,1,2,3,0,100,-322,-261,-1106,25,-392,-3072,-3072,-912,0,0,-1024,0,0,0,0,0,0,0,0,0,-1024,0,0,0,74,0,0,143,0,0,0,0,2,0,0,1,0,0,1,0,0,1,0,0,0,0,768,1,64
0,0,121576,0,-4.4282574654,-0.293037802,-116.7488708496,0.0005176988,0.0067722565,0.0011061444,0,0,0,0,0,0,0,0,-1024,15,2,15,2,20.1499996185,5,0,1,2,3,0,100,-322,-261,-1106,25,-392,-3072,-3072,-912,0,0,-1024,0,0,0,0,0,0,0,0,0,-1024,0,0,0,74,0,0,143,0,0,0,0,2,0,0,1,0,0,1,0,0,1,0,0,0,0,768,1,64
0,0,121576,0,-4.4282574654,-0.293037802,-116.7488708496,0.0005176988,0.0067722565,0.0011061444,0,0,0,0,0,0,0,0,-1024,15,2,15,2,20.1499996185,5,0,1,2,3,0,100,-322,-258,-1103,22,-395,-3072,-3072,-912,0,0,-1024,0,0,0,0,0,0,0,0,0,-1024,0,0,0,79,0,0,52,0,0,0,0,2,0,0,1,0,0,1,0,0,1,0,0,0,0,768,1,65
0,0,121576,0,-4.4282574654,-0.293037802,-116.7488708496,0.0005176988,0.0067722565,0.0011061444,0,0,0,0,0,0,0,0,-1024,15,2,15,2,20.1499996185,5,0,1,2,3,0,100,-322,-258,-1103,22,-395,-3072,-3072,-912,0,0,-1024,0,0,0,0,0,0,0,0,0,-1024,0,0,0,79,0,0,52,0,0,0,0,2,0,0,1,0,0,1,0,0,1,0,0,0,0,768,1,65
0,0,122847,0,-4.432056427,-0.2937354147,-116.740737915,0.0038060814,0.0041173222,0.006579408,0,0,0,0,0,0,0,0,-1024,15,2,15,2,20.1499996185,5,0,1,2,3,0,100,-322,-258,-1103,22,-395,-3072,-3072,-912,0,0,-1024,0,0,0,0,0,0,0,0,0,-1024,0,0,0,79,0,0,52,0,0,0,0,2,0,0,1,0,0,1,0,0,1,0,0,0,0,768,1,63
0,0,122847,0,-4.432056427,-0.2937354147,-116.740737915,0.0038060814,0.0041173222,0.006579408,0,0,0,0,0,0,0,0,-1024,15,2,15,2,20.1499996185,5,0,1,2,3,0,100,-322,-258,-1106,22,-395,-3072,-3072,-912,0,0,-1024,0,0,0,0,0,0,0,0,0,-1024,0,0,0,74,0,0,143,0,0,0,0,2,0,0,1,0,0,1,0,0,1,0,0,0,0,768,1,63
0,0,122847,0,-4.432056427,-0.2937354147,-116.740737915,0.0038060814,0.0041173222,0.006579408,0,0,0,0,0,0,0,0,-1024,15,2,15,2,20.1499996185,5,0,1,2,3,0,100,-322,-258,-1106,22,-395,-3072,-3072,-912,0,0,-1024,0,0,0,0,0,0,0,0,0,-1024,0,0,0,74,0,0,143,0,0,0,0,2,0,0,1,0,0,1,0,0,1,0,0,0,0,768,1,59
0,0,124117,0,-4.4187889099,-0.2948745787,-116.7526779175,9.37474542297423E-005,0.0061330181,0.0007234267,0,0,0,0,0,0,0,0,-1024,15,2,15,2,20.1499996185,5,0,1,2,3,0,100,-322,-258,-1106,22,-395,-3072,-3072,-912,0,0,-1024,0,0,0,0,0,0,0,0,0,-1024,0,0,0,74,0,0,143,0,0,0,0,2,0,0,1,0,0,1,0,0,1,0,0,0,0,768,1,59
0,0,124117,0,-4.4187889099,-0.2948745787,-116.7526779175,9.37474542297423E-005,0.0061330181,0.0007234267,0,0,0,0,0,0,0,0,-1024,15,2,15,2,20.1499996185,5,0,1,2,3,0,100,-325,-261,-1106,22,-395,-3072,-3072,-921,0,0,-1024,0,0,0,0,0,0,0,0,0,-1024,0,0,0,79,0,0,52,0,0,0,0,2,0,0,1,0,0,1,0,0,1,0,0,0,0,768,1,61
0,0,124117,0,-4.4187889099,-0.2948745787,-116.7526779175,9.37474542297423E-005,0.0061330181,0.0007234267,0,0,0,0,0,0,0,0,-1024,15,2,15,2,20.1499996185,5,0,1,2,3,0,100,-325,-261,-1106,22,-395,-3072,-3072,-921,0,0,-1024,0,0,0,0,0,0,0,0,0,-1024,0,0,0,79,0,0,52,0,0,0,0,2,0,0,1,0,0,1,0,0,1,0,0,0,0,768,1,61
0,0,125388,0,-4.4281167984,-0.3100908697,-116.7498626709,0.0019860866,0.002879621,0.0026216379,0,0,0,0,0,0,0,0,-1024,15,2,15,2,20.1499996185,5,0,1,2,3,0,100,-325,-261,-1106,22,-395,-3072,-3072,-921,0,0,-1024,0,0,0,0,0,0,0,0,0,-1024,0,0,0,79,0,0,52,0,0,0,0,2,0,0,1,0,0,1,0,0,1,0,0,0,0,768,1,57
0,0,125388,0,-4.4281167984,-0.3100908697,-116.7498626709,0.0019860866,0.002879621,0.0026216379,0,0,0,0,0,0,0,0,-1024,15,2,15,2,20.1499996185,5,0,1,2,3,0,100,-322,-261,-1106,22,-392,-3072,-3072,-912,0,0,-1024,0,0,0,0,0,0,0,0,0,-1024,0,0,0,74,0,0,143,0,0,0,0,2,0,0,1,0,0,1,0,0,1,0,0,0,0,768,1,57
0,0,125388,0,-4.4281167984,-0.3100908697,-116.7498626709,0.0019860866,0.002879621,0.0026216379,0,0,0,0,0,0,0,0,-1024,15,2,15,2,20.1499996185,5,0,1,2,3,0,100,-322,-261,-1106,22,-392,-3072,-3072,-912,0,0,-1024,0,0,0,0,0,0,0,0,0,-1024,0,0,0,74,0,0,143,0,0,0,0,2,0,0,1,0,0,1,0,0,1,0,0,0,0,768,1,56
0,0,126659,0,-4.4154963493,-0.2846277654,-116.754699707,-0.0008565072,0.0007630223,0.0002503032,0,0,0,0,0,0,0,0,-1024,15,2,15,2,20.1499996185,5,0,1,2,3,0,100,-322,-261,-1106,22,-392,-3072,-3072,-912,0,0,-1024,0,0,0,0,0,0,0,0,0,-1024,0,0,0,74,0,0,143,0,0,0,0,2,0,0,1,0,0,1,0,0,1,0,0,0,0,768,1,56
0,0,126659,0,-4.4154963493,-0.2846277654,-116.754699707,-0.0008565072,0.0007630223,0.0002503032,0,0,0,0,0,0,0,0,-1024,15,2,15,2,20.1499996185,5,0,1,2,3,0,100,-325,-261,-1106,25,-395,-3072,-3072,-28057,0,0,-1024,0,0,0,0,0,0,0,0,0,-1024,0,0,0,79,0,0,52,0,0,0,0,2,0,0,1,0,0,1,0,0,1,0,0,0,0,768,1,62
0,0,126659,0,-4.4154963493,-0.2846277654,-116.754699707,-0.0008565072,0.0007630223,0.0002503032,0,0,0,0,0,0,0,0,-1024,15,2,15,2,20.1499996185,5,0,1,2,3,0,100,-325,-261,-1106,25,-395,-3072,-3072,-28057,0,0,-1024,0,0,0,0,0,0,0,0,0,-1024,0,0,0,79,0,0,52,0,0,0,0,2,0,0,1,0,0,1,0,0,1,0,0,0,0,768,1,62
0,0,127929,0,-4.4124975204,-0.2873872519,-116.7602233887,-0.0003787258,-0.002431429,-0.0008632764,0,0,0,0,0,0,0,0,-1024,15,2,15,2,20.1499996185,5,0,1,2,3,0,100,-325,-261,-1106,25,-395,-3072,-3072,-28057,0,0,-1024,0,0,0,0,0,0,0,0,0,-1024,0,0,0,79,0,0,52,0,0,0,0,2,0,0,1,0,0,1,0,0,1,0,0,0,0,768,1,59
0,0,127929,0,-4.4124975204,-0.2873872519,-116.7602233887,-0.0003787258,-0.002431429,-0.0008632764,0,0,0,0,0,0,0,0,-1024,15,2,15,2,20.1499996185,5,0,1,2,3,0,100,-322,-2826,-1103,15,-392,-3072,-3072,-912,0,0,-1024,0,0,0,0,0,0,0,0,0,-1024,0,0,0,74,0,0,143,0,0,0,0,2,0,0,1,0,0,1,0,0,1,0,0,0,0,768,1,59
0,0,127929,0,-4.4124975204,-0.2873872519,-116.7602233887,-0.0003787258,-0.002431429,-0.0008632764,0,0,0,0,0,0,0,0,-1024,15,2,15,2,20.1499996185,5,0,1,2,3,0,100,-322,-2826,-1103,15,-392,-3072,-3072,-912,0,0,-1024,0,0,0,0,0,0,0,0,0,-1024,0,0,0,74,0,0,143,0,0,0,0,2,0,0,1,0,0,1,0,0,1,0,0,0,0,768,1,60
0,0,129200,0,-4.4120793343,-0.2668047249,-116.7524032593,-0.0007745155,0.0021780464,0.0019398117,0,0,0,0,0,0,0,0,-1024,15,2,15,2,20.1499996185,5,0,1,2,3,0,100,-322,-2826,-1103,15,-392,-3072,-3072,-912,0,0,-1024,0,0,0,0,0,0,0,0,0,-1024,0,0,0,74,0,0,143,0,0,0,0,2,0,0,1,0,0,1,0,0,1,0,0,0,0,768,1,60
0,0,129200,0,-4.4120793343,-0.2668047249,-116.7524032593,-0.0007745155,0.0021780464,0.0019398117,0,0,0,0,0,0,0,0,-1024,15,2,15,2,20.1499996185,5,0,1,2,3,0,100,-322,-258,-1103,22,-395,-3072,-3072,-915,0,0,-1024,0,0,0,0,0,0,0,0,0,-1024,0,0,0,79,0,0,52,0,0,0,0,2,0,0,1,0,0,1,0,0,1,0,0,0,0,768,1,60
0,0,129200,0,-4.4120793343,-0.2668047249,-116.7524032593,-0.0007745155,0.0021780464,0.0019398117,0,0,0,0,0,0,0,0,-1024,15,2,15,2,20.1499996185,5,0,1,2,3,0,100,-322,-258,-1103,22,-395,-3072,-3072,-915,0,0,-1024,0,0,0,0,0,0,0,0,0,-1024,0,0,0,79,0,0,52,0,0,0,0,2,0,0,1,0,0,1,0,0,1,0,0,0,0,768,1,60
0,0,130471,0,-4.4209256172,-0.2798787653,-116.7596359253,-0.0013300823,-0.0040773498,0.0009713518,0,0,0,0,0,0,0,0,-1024,15,2,15,2,20.1499996185,5,0,1,2,3,0,100,-322,-258,-1103,22,-395,-3072,-3072,-915,0,0,-1024,0,0,0,0,0,0,0,0,0,-1024,0,0,0,79,0,0,52,0,0,0,0,2,0,0,1,0,0,1,0,0,1,0,0,0,0,768,1,64
0,0,130471,0,-4.4209256172,-0.2798787653,-116.7596359253,-0.0013300823,-0.0040773498,0.0009713518,0,0,0,0,0,0,0,0,-1024,15,2,15,2,20.1499996185,5,0,1,2,3,0,100,-322,-258,-1103,22,-398,-3072,-3072,-912,0,0,-1024,0,0,0,0,0,0,0,0,0,-1024,0,0,0,74,0,0,143,0,0,0,0,2,0,0,1,0,0,1,0,0,1,0,0,0,0,768,1,64
0,0,130471,0,-4.4209256172,-0.2798787653,-116.7596359253,-0.0013300823,-0.0040773498,0.0009713518,0,0,0,0,0,0,0,0,-1024,15,2,15,2,20.1499996185,5,0,1,2,3,0,100,-322,-258,-1103,22,-398,-3072,-3072,-912,0,0,-1024,0,0,0,0,0,0,0,0,0,-1024,0,0,0,74,0,0,143,0,0,0,0,2,0,0,1,0,0,1,0,0,1,0,0,0,0,768,1,66
0,0,131741,0,-4.4195418358,-0.2707463503,-116.7509613037,-0.0010532095,-0.0058895852,-0.0109958621,0,0,0,0,0,0,0,0,-1024,15,2,15,2,20.1499996185,5,0,1,2,3,0,100,-322,-258,-1103,22,-398,-3072,-3072,-912,0,0,-1024,0,0,0,0,0,0,0,0,0,-1024,0,0,0,74,0,0,143,0,0,0,0,2,0,0,1,0,0,1,0,0,1,0,0,0,0,768,1,66
0,0,131741,0,-4.4195418358,-0.2707463503,-116.7509613037,-0.0010532095,-0.0058895852,-0.0109958621,0,0,0,0,0,0,0,0,-1024,15,2,15,2,20.1499996185,5,0,1,2,3,0,100,-322,-258,-1103,22,-392,-3072,-3072,-918,0,0,-1024,0,0,0,0,0,0,0,0,0,-1024,0,0,0,79,0,0,52,0,0,0,0,2,0,0,1,0,0,1,0,0,1,0,0,0,0,768,1,62
0,0,131741,0,-4.4195418358,-0.2707463503,-116.7509613037,-0.0010532095,-0.0058895852,-0.0109958621,0,0,0,0,0,0,0,0,-1024,15,2,15,2,20.1499996185,5,0,1,2,3,0,100,-322,-258,-1103,22,-392,-3072,-3072,-918,0,0,-1024,0,0,0,0,0,0,0,0,0,-1024,0,0,0,79,0,0,52,0,0,0,0,2,0,0,1,0,0,1,0,0,1,0,0,0,0,768,1,62
0,0,133012,0,-4.4192905426,-0.2797608376,-116.7414398193,0.0005204872,0.00141415,0.0009290529,0,0,0,0,0,0,0,0,-1024,15,2,15,2,20.1499996185,5,0,1,2,3,0,100,-322,-258,-1103,22,-392,-3072,-3072,-918,0,0,-1024,0,0,0,0,0,0,0,0,0,-1024,0,0,0,79,0,0,52,0,0,0,0,2,0,0,1,0,0,1,0,0,1,0,0,0,0,768,1,60
0,0,133012,0,-4.4192905426,-0.2797608376,-116.7414398193,0.0005204872,0.00141415,0.0009290529,0,0,0,0,0,0,0,0,-1024,15,2,15,2,20.1499996185,5,0,1,2,3,0,100,-322,-258,-1103,22,-395,-3072,-3072,-912,0,0,-1024,0,0,0,0,0,0,0,0,0,-1024,0,0,0,74,0,0,143,0,0,0,0,2,0,0,1,0,0,1,0,0,1,0,0,0,0,768,1,60
0,0,133012,0,-4.4192905426,-0.2797608376,-116.7414398193,0.0005204872,0.00141415,0.0009290529,0,0,0,0,0,0,0,0,-1024,15,2,15,2,20.1499996185,5,0,1,2,3,0,100,-322,-258,-1103,22,-395,-3072,-3072,-912,0,0,-1024,0,0,0,0,0,0,0,0,0,-1024,0,0,0,74,0,0,143,0,0,0,0,2,0,0,1,0,0,1,0,0,1,0,0,0,0,768,1,63
0,0,134283,0,-4.4190373421,-0.3444397748,-116.7734146118,-0.0001332387,0.0051446948,0.003364132,0,0,0,0,0,0,0,0,-1024,15,2,15,2,20.1499996185,5,0,1,2,3,0,100,-322,-258,-1103,22,-395,-3072,-3072,-912,0,0,-1024,0,0,0,0,0,0,0,0,0,-1024,0,0,0,74,0,0,143,0,0,0,0,2,0,0,1,0,0,1,0,0,1,0,0,0,0,768,1,63
0,0,134283,0,-4.4190373421,-0.3444397748,-116.7734146118,-0.0001332387,0.0051446948,0.003364132,0,0,0,0,0,0,0,0,-1024,15,2,15,2,20.1499996185,5,0,1,2,3,0,100,-322,-261,-1106,19,-2960,-3072,-3072,-912,0,0,-1024,0,0,0,0,0,0,0,0,0,-1024,0,0,0,79,0,0,52,0,0,0,0,2,0,0,1,0,0,1,0,0,1,0,0,0,0,768,1,64
0,0,134283,0,-4.4190373421,-0.3444397748,-116.7734146118,-0.0001332387,0.0051446948,0.003364132,0,0,0,0,0,0,0,0,-1024,15,2,15,2,20.1499996185,5,0,1,2,3,0,100,-322,-261,-1106,19,-2960,-3072,-3072,-912,0,0,-1024,0,0,0,0,0,0,0,0,0,-1024,0,0,0,79,0,0,52,0,0,0,0,2,0,0,1,0,0,1,0,0,1,0,0,0,0,768,1,64
0,0,135553,0,-4.3970279694,-0.2561347783,-116.7398757935,-0.0002270975,0.0008933349,0.0062102876,0,0,0,0,0,0,0,0,-1024,15,2,15,2,20.1499996185,5,0,1,2,3,0,100,-322,-261,-1106,19,-2960,-3072,-3072,-912,0,0,-1024,0,0,0,0,0,0,0,0,0,-1024,0,0,0,79,0,0,52,0,0,0,0,2,0,0,1,0,0,1,0,0,1,0,0,0,0,768,1,63
0,0,135553,0,-4.3970279694,-0.2561347783,-116.7398757935,-0.0002270975,0.0008933349,0.0062102876,0,0,0,0,0,0,0,0,-1024,15,2,15,2,20.1499996185,5,0,1,2,3,0,100,-322,-258,-1103,22,-392,-3072,-3072,-912,0,0,-1024,0,0,0,0,0,0,0,0,0,-1024,0,0,0,74,0,0,143,0,0,0,0,2,0,0,1,0,0,1,0,0,1,0,0,0,0,768,1,63
0,0,135553,0,-4.3970279694,-0.2561347783,-116.7398757935,-0.0002270975,0.0008933349,0.0062102876,0,0,0,0,0,0,0,0,-1024,15,2,15,2,20.1499996185,5,0,1,2,3,0,100,-322,-258,-1103,22,-392,-3072,-3072,-912,0,0,-1024,0,0,0,0,0,0,0,0,0,-1024,0,0,0,74,0,0,143,0,0,0,0,2,0,0,1,0,0,1,0,0,1,0,0,0,0,768,1,65
0,0,136824,0,-4.4034228325,-0.2393450439,-116.7333221436,-0.0010971457,0.0004903972,-0.0013486333,0,0,0,0,0,0,0,0,-1024,15,2,15,2,20.1499996185,5,0,1,2,3,0,100,-322,-258,-1103,22,-392,-3072,-3072,-912,0,0,-1024,0,0,0,0,0,0,0,0,0,-1024,0,0,0,74,0,0,143,0,0,0,0,2,0,0,1,0,0,1,0,0,1,0,0,0,0,768,1,65
0,0,136824,0,-4.4034228325,-0.2393450439,-116.7333221436,-0.0010971457,0.0004903972,-0.0013486333,0,0,0,0,0,0,0,0,-1024,15,2,15,2,20.1499996185,5,0,1,2,3,0,100,-322,-258,-1103,-2545,-395,-3072,-3072,-912,0,0,-1024,0,0,0,0,0,0,0,0,0,-1024,0,0,0,79,0,0,52,0,0,0,0,2,0,0,1,0,0,1,0,0,1,0,0,0,0,768,1,63
0,0,136824,0,-4.4034228325,-0.2393450439,-116.7333221436,-0.0010971457,0.0004903972,-0.0013486333,0,0,0,0,0,0,0,0,-1024,15,2,15,2,20.1499996185,5,0,1,2,3,0,100,-322,-258,-1103,-2545,-395,-3072,-3072,-912,0,0,-1024,0,0,0,0,0,0,0,0,0,-1024,0,0,0,79,0,0,52,0,0,0,0,2,0,0,1,0,0,1,0,0,1,0,0,0,0,768,1,63
0,0,138095,0,-4.4102783203,-0.2698883116,-116.7484741211,-0.0028434505,-0.0088388482,-0.0030223802,0,0,0,0,0,0,0,0,-1024,15,2,15,2,20.1499996185,5,0,1,2,3,0,100,-322,-258,-1103,-2545,-395,-3072,-3072,-912,0,0,-1024,0,0,0,0,0,0,0,0,0,-1024,0,0,0,79,0,0,52,0,0,0,0,2,0,0,1,0,0,1,0,0,1,0,0,0,0,768,1,67
0,0,138095,0,-4.4102783203,-0.2698883116,-116.7484741211,-0.0028434505,-0.0088388482,-0.0030223802,0,0,0,0,0,0,0,0,-1024,15,2,15,2,20.1499996185,5,0,1,2,3,0,100,-322,-2826,-1103,22,-395,-3072,-3072,-912,0,0,-1024,0,0,0,0,0,0,0,0,0,-1024,0,0,0,74,0,0,143,0,0,0,0,2,0,0,1,0,0,1,0,0,1,0,0,0,0,768,1,67
0,0,138095,0,-4.4102783203,-0.2698883116,-116.7484741211,-0.0028434505,-0.0088388482,-0.0030223802,0,0,0,0,0,0,0,0,-1024,15,2,15,2,20.1499996185,5,0,1,2,3,0,100,-322,-2826,-1103,22,-395,-3072,-3072,-912,0,0,-1024,0,0,0,0,0,0,0,0,0,-1024,0,0,0,74,0,0,143,0,0,0,0,2,0,0,1,0,0,1,0,0,1,0,0,0,0,768,1,64
0,0,139365,0,-4.4042062759,-0.2522618771,-116.738899231,-0.001285851,-0.006364096,-0.0003542663,0,0,0,0,0,0,0,0,-1024,15,2,15,2,20.1499996185,5,0,1,2,3,0,100,-322,-2826,-1103,22,-395,-3072,-3072,-912,0,0,-1024,0,0,0,0,0,0,0,0,0,-1024,0,0,0,74,0,0,143,0,0,0,0,2,0,0,1,0,0,1,0,0,1,0,0,0,0,768,1,64
0,0,139365,0,-4.4042062759,-0.2522618771,-116.738899231,-0.001285851,-0.006364096,-0.0003542663,0,0,0,0,0,0,0,0,-1024,15,2,15,2,20.1499996185,5,0,1,2,3,0,100,-322,-258,-1103,19,-395,-3072,-3072,-918,0,0,-1024,0,0,0,0,0,0,0,0,0,-1024,0,0,0,79,0,0,52,0,0,0,0,2,0,0,1,0,0,1,0,0,1,0,0,0,0,768,1,68
0,0,139365,0,-4.4042062759,-0.2522618771,-116.738899231,-0.001285851,-0.006364096,-0.0003542663,0,0,0,0,0,0,0,0,-1024,15,2,15,2,20.1499996185,5,0,1,2,3,0,100,-322,-258,-1103,19,-395,-3072,-3072,-918,0,0,-1024,0,0,0,0,0,0,0,0,0,-1024,0,0,0,79,0,0,52,0,0,0,0,2,0,0,1,0,0,1,0,0,1,0,0,0,0,768,1,68
0,0,140636,0,-4.4099473953,-0.2665135562,-116.7413101196,0.0003387888,0.0008155904,0.0011748457,0,0,0,0,0,0,0,0,-1024,15,2,15,2,20.1499996185,5,0,1,2,3,0,100,-322,-258,-1103,19,-395,-3072,-3072,-918,0,0,-1024,0,0,0,0,0,0,0,0,0,-1024,0,0,0,79,0,0,52,0,0,0,0,2,0,0,1,0,0,1,0,0,1,0,0,0,0,768,1,69
0,0,140636,0,-4.4099473953,-0.2665135562,-116.7413101196,0.0003387888,0.0008155904,0.0011748457,0,0,0,0,0,0,0,0,-1024,15,2,15,2,20.1499996185,5,0,1,2,3,0,100,-322,-258,-1103,25,-395,-3072,-3072,-912,0,0,-1024,0,0,0,0,0,0,0,0,0,-1024,0,0,0,74,0,0,143,0,0,0,0,2,0,0,1,0,0,1,0,0,1,0,0,0,0,768,1,69
0,0,140636,0,-4.4099473953,-0.2665135562,-116.7413101196,0.0003387888,0.0008155904,0.0011748457,0,0,0,0,0,0,0,0,-1024,15,2,15,2,20.1499996185,5,0,1,2,3,0,100,-322,-258,-1103,25,-395,-3072,-3072,-912,0,0,-1024,0,0,0,0,0,0,0,0,0,-1024,0,0,0,74,0,0,143,0,0,0,0,2,0,0,1,0,0,1,0,0,1,0,0,0,0,768,1,71
0,0,141907,0,-4.4221124649,-0.2816864848,-116.741897583,0.0029360789,0.0062738229,0.0036130506,0,0,0,0,0,0,0,0,-1024,15,2,15,2,20.1499996185,5,0,1,2,3,0,100,-322,-258,-1103,25,-395,-3072,-3072,-912,0,0,-1024,0,0,0,0,0,0,0,0,0,-1024,0,0,0,74,0,0,143,0,0,0,0,2,0,0,1,0,0,1,0,0,1,0,0,0,0,768,1,71
0,0,141907,0,-4.4221124649,-0.2816864848,-116.741897583,0.0029360789,0.0062738229,0.0036130506,0,0,0,0,0,0,0,0,-1024,15,2,15,2,20.1499996185,5,0,1,2,3,0,100,-322,-261,-1103,22,-395,-3072,-3072,-912,0,0,-1024,0,0,0,0,0,0,0,0,0,-1024,0,0,0,79,0,0,52,0,0,0,0,2,0,0,1,0,0,1,0,0,1,0,0,0,0,768,1,64
0,0,141907,0,-4.4221124649,-0.2816864848,-116.741897583,0.0029360789,0.0062738229,0.0036130506,0,0,0,0,0,0,0,0,-1024,15,2,15,2,20.1499996185,5,0,1,2,3,0,100,-322,-261,-1103,22,-395,-3072,-3072,-912,0,0,-1024,0,0,0,0,0,0,0,0,0,-1024,0,0,0,79,0,0,52,0,0,0,0,2,0,0,1,0,0,1,0,0,1,0,0,0,0,768,1,64
0,0,143177,0,-4.4092068672,-0.2676254511,-116.7322845459,0.0001053083,0.001049439,-0.000040099,0,0,0,0,0,0,0,0,-1024,15,2,15,2,20.1499996185,5,0,1,2,3,0,100,-322,-261,-1103,22,-395,-3072,-3072,-912,0,0,-1024,0,0,0,0,0,0,0,0,0,-1024,0,0,0,79,0,0,52,0,0,0,0,2,0,0,1,0,0,1,0,0,1,0,0,0,0,768,1,67
0,0,143177,0,-4.4092068672,-0.2676254511,-116.7322845459,0.0001053083,0.001049439,-0.000040099,0,0,0,0,0,0,0,0,-1024,15,2,15,2,20.1499996185,5,0,1,2,3,0,100,-322,-258,-1103,22,-395,-3072,-3072,-912,0,0,-1024,0,0,0,0,0,0,0,0,0,-1024,0,0,0,74,0,0,143,0,0,0,0,2,0,0,1,0,0,1,0,0,1,0,0,0,0,768,1,67
0,0,143177,0,-4.4092068672,-0.2676254511,-116.7322845459,0.0001053083,0.001049439,-0.000040099,0,0,0,0,0,0,0,0,-1024,15,2,15,2,20.1499996185,5,0,1,2,3,0,100,-322,-258,-1103,22,-395,-3072,-3072,-912,0,0,-1024,0,0,0,0,0,0,0,0,0,-1024,0,0,0,74,0,0,143,0,0,0,0,2,0,0,1,0,0,1,0,0,1,0,0,0,0,768,1,66
0,0,144448,0,-4.4027676582,-0.2699721754,-116.7272186279,-0.0007078318,-0.0012691598,-0.0015885173,0,0,0,0,0,0,0,0,-1024,15,2,15,2,20.1499996185,5,0,1,2,3,0,100,-322,-258,-1103,22,-395,-3072,-3072,-912,0,0,-1024,0,0,0,0,0,0,0,0,0,-1024,0,0,0,74,0,0,143,0,0,0,0,2,0,0,1,0,0,1,0,0,1,0,0,0,0,768,1,66
0,0,144448,0,-4.4027676582,-0.2699721754,-116.7272186279,-0.0007078318,-0.0012691598,-0.0015885173,0,0,0,0,0,0,0,0,-1024,15,2,15,2,20.1499996185,5,0,1,2,3,0,100,-325,-261,-1106,22,-2960,-3072,-3072,-912,0,0,-1024,0,0,0,0,0,0,0,0,0,-1024,0,0,0,79,0,0,52,0,0,0,0,2,0,0,1,0,0,1,0,0,1,0,0,0,0,768,1,63
0,0,144448,0,-4.4027676582,-0.2699721754,-116.7272186279,-0.0007078318,-0.0012691598,-0.0015885173,0,0,0,0,0,0,0,0,-1024,15,2,15,2,20.1499996185,5,0,1,2,3,0,100,-325,-261,-1106,22,-2960,-3072,-3072,-912,0,0,-1024,0,0,0,0,0,0,0,0,0,-1024,0,0,0,79,0,0,52,0,0,0,0,2,0,0,1,0,0,1,0,0,1,0,0,0,0,768,1,63
0,0,145718,0,-4.4025230408,-0.2671971619,-116.7276382446,0.0005999943,0.0002481043,0.0054041576,0,0,0,0,0,0,0,0,-1024,15,2,15,2,20.1499996185,5,0,1,2,3,0,100,-325,-261,-1106,22,-2960,-3072,-3072,-912,0,0,-1024,0,0,0,0,0,0,0,0,0,-1024,0,0,0,79,0,0,52,0,0,0,0,2,0,0,1,0,0,1,0,0,1,0,0,0,0,768,1,62
0,0,145718,0,-4.4025230408,-0.2671971619,-116.7276382446,0.0005999943,0.0002481043,0.0054041576,0,0,0,0,0,0,0,0,-1024,15,2,15,2,20.1499996185,5,0,1,2,3,0,100,-322,-261,-1103,22,-398,-3072,-3072,-918,0,0,-1024,0,0,0,0,0,0,0,0,0,-1024,0,0,0,74,0,0,143,0,0,0,0,2,0,0,1,0,0,1,0,0,1,0,0,0,0,768,1,62
0,0,145718,0,-4.4025230408,-0.2671971619,-116.7276382446,0.0005999943,0.0002481043,0.0054041576,0,0,0,0,0,0,0,0,-1024,15,2,15,2,20.1499996185,5,0,1,2,3,0,100,-322,-261,-1103,22,-398,-3072,-3072,-918,0,0,-1024,0,0,0,0,0,0,0,0,0,-1024,0,0,0,74,0,0,143,0,0,0,0,2,0,0,1,0,0,1,0,0,1,0,0,0,0,768,1,66
